%time,field.header.seq,field.header.stamp,field.header.frame_id,field.novatel_msg_header.message_name,field.novatel_msg_header.port,field.novatel_msg_header.sequence_num,field.novatel_msg_header.percent_idle_time,field.novatel_msg_header.gps_time_status,field.novatel_msg_header.gps_week_num,field.novatel_msg_header.gps_seconds,field.novatel_msg_header.receiver_status.original_status_code,field.novatel_msg_header.receiver_status.error_flag,field.novatel_msg_header.receiver_status.temperature_flag,field.novatel_msg_header.receiver_status.voltage_supply_flag,field.novatel_msg_header.receiver_status.antenna_powered,field.novatel_msg_header.receiver_status.antenna_is_open,field.novatel_msg_header.receiver_status.antenna_is_shorted,field.novatel_msg_header.receiver_status.cpu_overload_flag,field.novatel_msg_header.receiver_status.com1_buffer_overrun,field.novatel_msg_header.receiver_status.com2_buffer_overrun,field.novatel_msg_header.receiver_status.com3_buffer_overrun,field.novatel_msg_header.receiver_status.usb_buffer_overrun,field.novatel_msg_header.receiver_status.rf1_agc_flag,field.novatel_msg_header.receiver_status.rf2_agc_flag,field.novatel_msg_header.receiver_status.almanac_flag,field.novatel_msg_header.receiver_status.position_solution_flag,field.novatel_msg_header.receiver_status.position_fixed_flag,field.novatel_msg_header.receiver_status.clock_steering_status_enabled,field.novatel_msg_header.receiver_status.clock_model_flag,field.novatel_msg_header.receiver_status.oemv_external_oscillator_flag,field.novatel_msg_header.receiver_status.software_resource_flag,field.novatel_msg_header.receiver_status.aux1_status_event_flag,field.novatel_msg_header.receiver_status.aux2_status_event_flag,field.novatel_msg_header.receiver_status.aux3_status_event_flag,field.novatel_msg_header.receiver_software_version,field.week,field.seconds,field.latitude,field.longitude,field.height,field.north_velocity,field.east_velocity,field.up_velocity,field.roll,field.pitch,field.azimuth,field.status
1595838795657008479,48458,1595838795655999486,/novatel/imu,INSPVAA,USB3,0,14.0,FINESTEERING,2116,117077.99,16777216,0,0,0,1,0,0,0,0,0,0,0,0,0,0,0,0,1,0,0,0,0,0,0,14102,2116,117077.99,48.7962019955,1.98632344294,201.2804,0.0006,0.0005,-0.0002,-0.471539773,-0.682772425,215.262422324,INS_SOLUTION_GOOD
1595838795682767444,48459,1595838795682212871,/novatel/imu,INSPVAA,USB3,0,14.0,FINESTEERING,2116,117078.0,16777216,0,0,0,1,0,0,0,0,0,0,0,0,0,0,0,0,1,0,0,0,0,0,0,14102,2116,117078.0,48.7962019955,1.98632344305,201.2804,0.0,0.0006,-0.0004,-0.470978395,-0.682362664,215.261946558,INS_SOLUTION_GOOD
1595838795685624842,48460,1595838795685289514,/novatel/imu,INSPVAA,USB3,0,14.0,FINESTEERING,2116,117078.01,16777216,0,0,0,1,0,0,0,0,0,0,0,0,0,0,0,0,1,0,0,0,0,0,0,14102,2116,117078.01,48.7962019955,1.98632344303,201.2804,-0.0002,0.0007,-0.0001,-0.471397666,-0.682058475,215.260581761,INS_SOLUTION_GOOD
1595838795687774867,48461,1595838795687322293,/novatel/imu,INSPVAA,USB3,0,14.0,FINESTEERING,2116,117078.02,16777216,0,0,0,1,0,0,0,0,0,0,0,0,0,0,0,0,1,0,0,0,0,0,0,14102,2116,117078.02,48.7962019953,1.98632344304,201.2803,-0.0013,0.0008,-0.0003,-0.470537897,-0.680283054,215.261231724,INS_SOLUTION_GOOD
1595838795695740778,48462,1595838795695487568,/novatel/imu,INSPVAA,USB3,0,14.0,FINESTEERING,2116,117078.03,16777216,0,0,0,1,0,0,0,0,0,0,0,0,0,0,0,0,1,0,0,0,0,0,0,14102,2116,117078.03,48.7962019953,1.98632344306,201.2803,-0.0009,0.0006,-0.0003,-0.470617453,-0.679995754,215.260734951,INS_SOLUTION_GOOD
1595838795710285066,48463,1595838795708783546,/novatel/imu,INSPVAA,USB3,0,14.0,FINESTEERING,2116,117078.04,16777216,0,0,0,1,0,0,0,0,0,0,0,0,0,0,0,0,1,0,0,0,0,0,0,14102,2116,117078.04,48.7962019954,1.98632344312,201.2803,0.0002,0.0008,-0.0003,-0.471396353,-0.68129815,215.262545998,INS_SOLUTION_GOOD
1595838795723615740,48464,1595838795722904163,/novatel/imu,INSPVAA,USB3,0,14.0,FINESTEERING,2116,117078.05,16777216,0,0,0,1,0,0,0,0,0,0,0,0,0,0,0,0,1,0,0,0,0,0,0,14102,2116,117078.05,48.7962019953,1.98632344327,201.2803,-0.001,0.0012,-0.0002,-0.469818079,-0.679996129,215.261161609,INS_SOLUTION_GOOD
1595838795728494231,48465,1595838795726623990,/novatel/imu,INSPVAA,USB3,0,14.0,FINESTEERING,2116,117078.06,16777216,0,0,0,1,0,0,0,0,0,0,0,0,0,0,0,0,1,0,0,0,0,0,0,14102,2116,117078.06,48.7962019956,1.98632344343,201.2803,0.0007,0.0015,-0.0005,-0.470828124,-0.683118964,215.261486924,INS_SOLUTION_GOOD
1595838795735304402,48466,1595838795734896530,/novatel/imu,INSPVAA,USB3,0,14.0,FINESTEERING,2116,117078.07,16777216,0,0,0,1,0,0,0,0,0,0,0,0,0,0,0,0,1,0,0,0,0,0,0,14102,2116,117078.07,48.7962019955,1.9863234434,201.2803,-0.0001,0.0011,-0.0003,-0.470980351,-0.682238053,215.2607165,INS_SOLUTION_GOOD
1595838795743984845,48467,1595838795743752553,/novatel/imu,INSPVAA,USB3,0,14.0,FINESTEERING,2116,117078.08,16777216,0,0,0,1,0,0,0,0,0,0,0,0,0,0,0,0,1,0,0,0,0,0,0,14102,2116,117078.08,48.7962019955,1.98632344321,201.2803,-0.0005,0.0004,-0.0005,-0.472639216,-0.680903603,215.262108818,INS_SOLUTION_GOOD
1595838795757552438,48468,1595838795756160840,/novatel/imu,INSPVAA,USB3,0,14.0,FINESTEERING,2116,117078.09,16777216,0,0,0,1,0,0,0,0,0,0,0,0,0,0,0,0,1,0,0,0,0,0,0,14102,2116,117078.09,48.7962019954,1.98632344364,201.2803,-0.0003,0.0001,-0.0002,-0.469043942,-0.681835096,215.258668909,INS_SOLUTION_GOOD
1595838795776851275,48469,1595838795776116040,/novatel/imu,INSPVAA,USB3,0,14.0,FINESTEERING,2116,117078.1,16777216,0,0,0,1,0,0,0,0,0,0,0,0,0,0,0,0,1,0,0,0,0,0,0,14102,2116,117078.1,48.7962019954,1.98632344368,201.2803,-0.0005,-0.0001,-0.0002,-0.46901409,-0.680980441,215.256866808,INS_SOLUTION_GOOD
1595838795776866673,48470,1595838795776116040,/novatel/imu,INSPVAA,USB3,0,14.0,FINESTEERING,2116,117078.11,16777216,0,0,0,1,0,0,0,0,0,0,0,0,0,0,0,0,1,0,0,0,0,0,0,14102,2116,117078.11,48.7962019956,1.98632344366,201.2803,0.0005,-0.0005,-0.0002,-0.470770858,-0.68256169,215.258974863,INS_SOLUTION_GOOD
1595838795785727212,48471,1595838795785381312,/novatel/imu,INSPVAA,USB3,0,14.0,FINESTEERING,2116,117078.12,16777216,0,0,0,1,0,0,0,0,0,0,0,0,0,0,0,0,1,0,0,0,0,0,0,14102,2116,117078.12,48.7962019956,1.98632344385,201.2803,0.0002,0.0003,-0.0006,-0.469591376,-0.683097224,215.25880886,INS_SOLUTION_GOOD
1595838795794874932,48472,1595838795794591814,/novatel/imu,INSPVAA,USB3,0,14.0,FINESTEERING,2116,117078.13,16777216,0,0,0,1,0,0,0,0,0,0,0,0,0,0,0,0,1,0,0,0,0,0,0,14102,2116,117078.13,48.7962019956,1.98632344383,201.2803,0.0004,-0.0002,-0.0003,-0.470518441,-0.683271444,215.259755896,INS_SOLUTION_GOOD
1595838795804217807,48473,1595838795803749186,/novatel/imu,INSPVAA,USB3,0,14.0,FINESTEERING,2116,117078.14,16777216,0,0,0,1,0,0,0,0,0,0,0,0,0,0,0,0,1,0,0,0,0,0,0,14102,2116,117078.14,48.7962019956,1.98632344368,201.2803,-0.0001,-0.0009,-0.0006,-0.471425487,-0.681627493,215.258843884,INS_SOLUTION_GOOD
1595838795827831853,48474,1595838795824790574,/novatel/imu,INSPVAA,USB3,0,14.0,FINESTEERING,2116,117078.15,16777216,0,0,0,1,0,0,0,0,0,0,0,0,0,0,0,0,1,0,0,0,0,0,0,14102,2116,117078.15,48.7962019956,1.98632344367,201.2803,0.0001,-0.0009,-0.0006,-0.472409848,-0.681514115,215.258400309,INS_SOLUTION_GOOD
1595838795827863518,48475,1595838795825236421,/novatel/imu,INSPVAA,USB3,0,14.0,FINESTEERING,2116,117078.16,16777216,0,0,0,1,0,0,0,0,0,0,0,0,0,0,0,0,1,0,0,0,0,0,0,14102,2116,117078.16,48.7962019956,1.98632344383,201.2803,-0.0001,-0.0003,-0.0007,-0.471298775,-0.681730061,215.259152356,INS_SOLUTION_GOOD
1595838795838866089,48476,1595838795836440220,/novatel/imu,INSPVAA,USB3,0,14.0,FINESTEERING,2116,117078.17,16777216,0,0,0,1,0,0,0,0,0,0,0,0,0,0,0,0,1,0,0,0,0,0,0,14102,2116,117078.17,48.7962019955,1.98632344372,201.2803,-0.0007,-0.0009,-0.0007,-0.471397778,-0.679468301,215.258263039,INS_SOLUTION_GOOD
1595838795855704642,48477,1595838795847196118,/novatel/imu,INSPVAA,USB3,0,14.0,FINESTEERING,2116,117078.18,16777216,0,0,0,1,0,0,0,0,0,0,0,0,0,0,0,0,1,0,0,0,0,0,0,14102,2116,117078.18,48.7962019955,1.98632344389,201.2803,-0.0003,-0.0003,-0.0006,-0.470596462,-0.680316371,215.259693132,INS_SOLUTION_GOOD
1595838795855765257,48478,1595838795854632729,/novatel/imu,INSPVAA,USB3,0,14.0,FINESTEERING,2116,117078.19,16777216,0,0,0,1,0,0,0,0,0,0,0,0,0,0,0,0,1,0,0,0,0,0,0,14102,2116,117078.19,48.7962019954,1.98632344378,201.2803,-0.0003,-0.0007,-0.0003,-0.471157462,-0.678797513,215.258169558,INS_SOLUTION_GOOD
1595838795876631828,48479,1595838795875616920,/novatel/imu,INSPVAA,USB3,0,14.0,FINESTEERING,2116,117078.2,16777216,0,0,0,1,0,0,0,0,0,0,0,0,0,0,0,0,1,0,0,0,0,0,0,14102,2116,117078.2,48.7962019955,1.98632344404,201.2802,0.0,-0.0004,-0.0005,-0.470265664,-0.679982326,215.259849167,INS_SOLUTION_GOOD
1595838795876647074,48480,1595838795875616920,/novatel/imu,INSPVAA,USB3,0,14.0,FINESTEERING,2116,117078.21,16777216,0,0,0,1,0,0,0,0,0,0,0,0,0,0,0,0,1,0,0,0,0,0,0,14102,2116,117078.21,48.7962019956,1.98632344408,201.2802,0.0007,-0.0005,-0.0002,-0.471033937,-0.6810319,215.258364222,INS_SOLUTION_GOOD
1595838795886516672,48481,1595838795885790145,/novatel/imu,INSPVAA,USB3,0,14.0,FINESTEERING,2116,117078.22,16777216,0,0,0,1,0,0,0,0,0,0,0,0,0,0,0,0,1,0,0,0,0,0,0,14102,2116,117078.22,48.7962019954,1.98632344404,201.2802,-0.0005,-0.0007,-0.0002,-0.470344902,-0.678728611,215.258370956,INS_SOLUTION_GOOD
1595838795895320898,48482,1595838795894760028,/novatel/imu,INSPVAA,USB3,0,14.0,FINESTEERING,2116,117078.23,16777216,0,0,0,1,0,0,0,0,0,0,0,0,0,0,0,0,1,0,0,0,0,0,0,14102,2116,117078.23,48.7962019955,1.9863234443,201.2802,0.0002,-0.0002,-0.0001,-0.469270778,-0.680613838,215.258233472,INS_SOLUTION_GOOD
1595838795904779705,48483,1595838795904220680,/novatel/imu,INSPVAA,USB3,0,14.0,FINESTEERING,2116,117078.24,16777216,0,0,0,1,0,0,0,0,0,0,0,0,0,0,0,0,1,0,0,0,0,0,0,14102,2116,117078.24,48.7962019955,1.98632344405,201.2802,0.0,-0.0015,-0.0,-0.471395796,-0.679085491,215.258727589,INS_SOLUTION_GOOD
1595838795922581969,48484,1595838795922151550,/novatel/imu,INSPVAA,USB3,0,14.0,FINESTEERING,2116,117078.25,16777216,0,0,0,1,0,0,0,0,0,0,0,0,0,0,0,0,1,0,0,0,0,0,0,14102,2116,117078.25,48.7962019955,1.98632344452,201.2802,-0.0002,0.0003,-0.0002,-0.468373007,-0.680542222,215.259583683,INS_SOLUTION_GOOD
1595838795927444431,48485,1595838795926453207,/novatel/imu,INSPVAA,USB3,0,14.0,FINESTEERING,2116,117078.26,16777216,0,0,0,1,0,0,0,0,0,0,0,0,0,0,0,0,1,0,0,0,0,0,0,14102,2116,117078.26,48.7962019956,1.9863234445,201.2802,0.0008,-0.0002,-0.0003,-0.46970465,-0.68149816,215.259524603,INS_SOLUTION_GOOD
1595838795937323084,48486,1595838795936662027,/novatel/imu,INSPVAA,USB3,0,14.0,FINESTEERING,2116,117078.27,16777216,0,0,0,1,0,0,0,0,0,0,0,0,0,0,0,0,1,0,0,0,0,0,0,14102,2116,117078.27,48.7962019955,1.9863234445,201.2802,-0.0003,-0.0007,-0.0002,-0.469262546,-0.680227606,215.258166473,INS_SOLUTION_GOOD
1595838795948766209,48487,1595838795948231450,/novatel/imu,INSPVAA,USB3,0,14.0,FINESTEERING,2116,117078.28,16777216,0,0,0,1,0,0,0,0,0,0,0,0,0,0,0,0,1,0,0,0,0,0,0,14102,2116,117078.28,48.7962019954,1.98632344467,201.2802,-0.0005,0.0,-0.0004,-0.467860095,-0.680123315,215.257774233,INS_SOLUTION_GOOD
1595838795961937731,48488,1595838795960120427,/novatel/imu,INSPVAA,USB3,0,14.0,FINESTEERING,2116,117078.29,16777216,0,0,0,1,0,0,0,0,0,0,0,0,0,0,0,0,1,0,0,0,0,0,0,14102,2116,117078.29,48.7962019956,1.98632344443,201.2802,0.0004,-0.0011,-0.0006,-0.470780995,-0.679938951,215.255858456,INS_SOLUTION_GOOD
1595838795974000340,48489,1595838795972942793,/novatel/imu,INSPVAA,USB3,0,14.0,FINESTEERING,2116,117078.3,16777216,0,0,0,1,0,0,0,0,0,0,0,0,0,0,0,0,1,0,0,0,0,0,0,14102,2116,117078.3,48.7962019955,1.98632344468,201.2802,-0.0004,-0.0003,-0.0006,-0.469122605,-0.679994213,215.257317281,INS_SOLUTION_GOOD
1595838795975792938,48490,1595838795975207863,/novatel/imu,INSPVAA,USB3,0,14.0,FINESTEERING,2116,117078.31,16777216,0,0,0,1,0,0,0,0,0,0,0,0,0,0,0,0,1,0,0,0,0,0,0,14102,2116,117078.31,48.7962019956,1.98632344473,201.2802,-0.0002,0.0,-0.0008,-0.469426261,-0.680571999,215.257811337,INS_SOLUTION_GOOD
1595838795990772463,48491,1595838795990161256,/novatel/imu,INSPVAA,USB3,0,14.0,FINESTEERING,2116,117078.32,16777216,0,0,0,1,0,0,0,0,0,0,0,0,0,0,0,0,1,0,0,0,0,0,0,14102,2116,117078.32,48.7962019955,1.98632344466,201.2802,-0.0006,-0.0006,-0.0006,-0.469683225,-0.679175607,215.256743981,INS_SOLUTION_GOOD
1595838795996862516,48492,1595838795996330590,/novatel/imu,INSPVAA,USB3,0,14.0,FINESTEERING,2116,117078.33,16777216,0,0,0,1,0,0,0,0,0,0,0,0,0,0,0,0,1,0,0,0,0,0,0,14102,2116,117078.33,48.7962019957,1.98632344477,201.2802,0.0002,-0.0002,-0.001,-0.470536859,-0.681286748,215.258378296,INS_SOLUTION_GOOD
1595838796005418307,48493,1595838796005078062,/novatel/imu,INSPVAA,USB3,0,15.5,FINESTEERING,2116,117078.34,16777216,0,0,0,1,0,0,0,0,0,0,0,0,0,0,0,0,1,0,0,0,0,0,0,14102,2116,117078.34,48.7962019957,1.98632344476,201.2802,-0.0001,-0.0003,-0.001,-0.470750525,-0.680853404,215.258580788,INS_SOLUTION_GOOD
1595838796024260372,48494,1595838796023974625,/novatel/imu,INSPVAA,USB3,0,15.5,FINESTEERING,2116,117078.35,16777216,0,0,0,1,0,0,0,0,0,0,0,0,0,0,0,0,1,0,0,0,0,0,0,14102,2116,117078.35,48.7962019956,1.98632344486,201.2802,-0.001,-0.0001,-0.0007,-0.470137175,-0.680212521,215.257499131,INS_SOLUTION_GOOD
1595838796027322795,48495,1595838796026950720,/novatel/imu,INSPVAA,USB3,0,15.5,FINESTEERING,2116,117078.36,16777216,0,0,0,1,0,0,0,0,0,0,0,0,0,0,0,0,1,0,0,0,0,0,0,14102,2116,117078.36,48.7962019957,1.98632344485,201.2802,-0.0007,-0.0004,-0.0008,-0.470723316,-0.680162468,215.256644515,INS_SOLUTION_GOOD
1595838796034731301,48496,1595838796034405747,/novatel/imu,INSPVAA,USB3,0,15.5,FINESTEERING,2116,117078.37,16777216,0,0,0,1,0,0,0,0,0,0,0,0,0,0,0,0,1,0,0,0,0,0,0,14102,2116,117078.37,48.7962019958,1.9863234451,201.2801,0.0001,0.0006,-0.0008,-0.470259404,-0.682649139,215.257713756,INS_SOLUTION_GOOD
1595838796044716880,48497,1595838796044368071,/novatel/imu,INSPVAA,USB3,0,15.5,FINESTEERING,2116,117078.38,16777216,0,0,0,1,0,0,0,0,0,0,0,0,0,0,0,0,1,0,0,0,0,0,0,14102,2116,117078.38,48.7962019958,1.98632344489,201.2801,-0.0006,-0.0005,-0.0007,-0.471847714,-0.681016938,215.25672581,INS_SOLUTION_GOOD
1595838796056684256,48498,1595838796056290010,/novatel/imu,INSPVAA,USB3,0,15.5,FINESTEERING,2116,117078.39,16777216,0,0,0,1,0,0,0,0,0,0,0,0,0,0,0,0,1,0,0,0,0,0,0,14102,2116,117078.39,48.7962019958,1.98632344499,201.2801,-0.0007,-0.0,-0.0006,-0.471543147,-0.681423463,215.25567351,INS_SOLUTION_GOOD
1595838796076457576,48499,1595838796075868415,/novatel/imu,INSPVAA,USB3,0,15.5,FINESTEERING,2116,117078.4,16777216,0,0,0,1,0,0,0,0,0,0,0,0,0,0,0,0,1,0,0,0,0,0,0,14102,2116,117078.4,48.7962019957,1.98632344509,201.2801,-0.0016,0.0002,-0.0005,-0.470362305,-0.679976854,215.255935967,INS_SOLUTION_GOOD
1595838796076479323,48500,1595838796075868415,/novatel/imu,INSPVAA,USB3,0,15.5,FINESTEERING,2116,117078.41,16777216,0,0,0,1,0,0,0,0,0,0,0,0,0,0,0,0,1,0,0,0,0,0,0,14102,2116,117078.41,48.7962019958,1.98632344521,201.2801,-0.0006,0.0003,-0.0003,-0.471065537,-0.681983156,215.257650358,INS_SOLUTION_GOOD
1595838796085156163,48501,1595838796084839122,/novatel/imu,INSPVAA,USB3,0,15.5,FINESTEERING,2116,117078.42,16777216,0,0,0,1,0,0,0,0,0,0,0,0,0,0,0,0,1,0,0,0,0,0,0,14102,2116,117078.42,48.7962019959,1.98632344508,201.2801,-0.0004,-0.0009,-0.0009,-0.472525823,-0.681489388,215.255724274,INS_SOLUTION_GOOD
1595838796095256372,48502,1595838796094642982,/novatel/imu,INSPVAA,USB3,0,15.5,FINESTEERING,2116,117078.43,16777216,0,0,0,1,0,0,0,0,0,0,0,0,0,0,0,0,1,0,0,0,0,0,0,14102,2116,117078.43,48.7962019957,1.98632344513,201.2801,-0.0015,-0.0005,-0.0007,-0.471381086,-0.679975044,215.256821476,INS_SOLUTION_GOOD
1595838796109401799,48503,1595838796109029701,/novatel/imu,INSPVAA,USB3,0,15.5,FINESTEERING,2116,117078.44,16777216,0,0,0,1,0,0,0,0,0,0,0,0,0,0,0,0,1,0,0,0,0,0,0,14102,2116,117078.44,48.7962019959,1.98632344534,201.2801,-0.0001,0.0003,-0.0002,-0.471596418,-0.682834101,215.256177041,INS_SOLUTION_GOOD
1595838796126122257,48504,1595838796125670699,/novatel/imu,INSPVAA,USB3,0,15.5,FINESTEERING,2116,117078.45,16777216,0,0,0,1,0,0,0,0,0,0,0,0,0,0,0,0,1,0,0,0,0,0,0,14102,2116,117078.45,48.796201996,1.98632344535,201.2801,-0.0002,-0.0001,-0.0,-0.472268749,-0.682536984,215.255209318,INS_SOLUTION_GOOD
1595838796127156231,48505,1595838796126784936,/novatel/imu,INSPVAA,USB3,0,15.5,FINESTEERING,2116,117078.46,16777216,0,0,0,1,0,0,0,0,0,0,0,0,0,0,0,0,1,0,0,0,0,0,0,14102,2116,117078.46,48.7962019959,1.98632344536,201.2801,-0.0004,-0.0004,-0.0004,-0.471934433,-0.681543197,215.255820916,INS_SOLUTION_GOOD
1595838796136959951,48506,1595838796135285395,/novatel/imu,INSPVAA,USB3,0,15.5,FINESTEERING,2116,117078.47,16777216,0,0,0,1,0,0,0,0,0,0,0,0,0,0,0,0,1,0,0,0,0,0,0,14102,2116,117078.47,48.7962019959,1.98632344549,201.2801,-0.0003,0.0001,-0.0002,-0.471058485,-0.681666508,215.256105599,INS_SOLUTION_GOOD
1595838796146403474,48507,1595838796145958467,/novatel/imu,INSPVAA,USB3,0,15.5,FINESTEERING,2116,117078.48,16777216,0,0,0,1,0,0,0,0,0,0,0,0,0,0,0,0,1,0,0,0,0,0,0,14102,2116,117078.48,48.7962019959,1.98632344545,201.2801,0.0,-0.0003,-0.0004,-0.471972512,-0.681726994,215.254352513,INS_SOLUTION_GOOD
1595838796157761450,48508,1595838796156231631,/novatel/imu,INSPVAA,USB3,0,15.5,FINESTEERING,2116,117078.49,16777216,0,0,0,1,0,0,0,0,0,0,0,0,0,0,0,0,1,0,0,0,0,0,0,14102,2116,117078.49,48.7962019959,1.98632344538,201.2801,-0.0001,-0.0005,-0.0005,-0.472736339,-0.680976166,215.254981201,INS_SOLUTION_GOOD
1595838796175368272,48509,1595838796175013219,/novatel/imu,INSPVAA,USB3,0,15.5,FINESTEERING,2116,117078.5,16777216,0,0,0,1,0,0,0,0,0,0,0,0,0,0,0,0,1,0,0,0,0,0,0,14102,2116,117078.5,48.7962019959,1.98632344555,201.2801,0.0004,0.0,-0.0008,-0.472136426,-0.681433931,215.254130187,INS_SOLUTION_GOOD
1595838796180286234,48510,1595838796176445346,/novatel/imu,INSPVAA,USB3,0,15.5,FINESTEERING,2116,117078.51,16777216,0,0,0,1,0,0,0,0,0,0,0,0,0,0,0,0,1,0,0,0,0,0,0,14102,2116,117078.51,48.796201996,1.98632344547,201.2801,0.0003,-0.0005,-0.0007,-0.473244163,-0.681132111,215.252813919,INS_SOLUTION_GOOD
1595838796191184748,48511,1595838796188837749,/novatel/imu,INSPVAA,USB3,0,15.5,FINESTEERING,2116,117078.52,16777216,0,0,0,1,0,0,0,0,0,0,0,0,0,0,0,0,1,0,0,0,0,0,0,14102,2116,117078.52,48.796201996,1.98632344559,201.2801,0.0009,-0.0001,-0.001,-0.472967063,-0.681842069,215.253792737,INS_SOLUTION_GOOD
1595838796194728617,48512,1595838796194498114,/novatel/imu,INSPVAA,USB3,0,15.5,FINESTEERING,2116,117078.53,16777216,0,0,0,1,0,0,0,0,0,0,0,0,0,0,0,0,1,0,0,0,0,0,0,14102,2116,117078.53,48.796201996,1.98632344571,201.2801,0.0009,0.0004,-0.0011,-0.472466745,-0.682289201,215.255335095,INS_SOLUTION_GOOD
1595838796212429057,48513,1595838796211991991,/novatel/imu,INSPVAA,USB3,0,15.5,FINESTEERING,2116,117078.54,16777216,0,0,0,1,0,0,0,0,0,0,0,0,0,0,0,0,1,0,0,0,0,0,0,14102,2116,117078.54,48.796201996,1.98632344553,201.2801,0.0007,-0.0008,-0.0015,-0.473946071,-0.680987168,215.255268805,INS_SOLUTION_GOOD
1595838796225432299,48514,1595838796225129240,/novatel/imu,INSPVAA,USB3,0,15.5,FINESTEERING,2116,117078.55,16777216,0,0,0,1,0,0,0,0,0,0,0,0,0,0,0,0,1,0,0,0,0,0,0,14102,2116,117078.55,48.7962019959,1.98632344576,201.28,-0.0003,0.0,-0.0013,-0.471686471,-0.67997209,215.254054444,INS_SOLUTION_GOOD
1595838796227725277,48515,1595838796227426240,/novatel/imu,INSPVAA,USB3,0,15.5,FINESTEERING,2116,117078.56,16777216,0,0,0,1,0,0,0,0,0,0,0,0,0,0,0,0,1,0,0,0,0,0,0,14102,2116,117078.56,48.7962019959,1.98632344571,201.28,-0.0003,-0.0008,-0.0011,-0.472373275,-0.679432832,215.257508167,INS_SOLUTION_GOOD
1595838796237045245,48516,1595838796236605560,/novatel/imu,INSPVAA,USB3,0,15.5,FINESTEERING,2116,117078.57,16777216,0,0,0,1,0,0,0,0,0,0,0,0,0,0,0,0,1,0,0,0,0,0,0,14102,2116,117078.57,48.7962019959,1.98632344592,201.28,-0.0003,-0.0003,-0.0014,-0.471526971,-0.680857618,215.25412381,INS_SOLUTION_GOOD
1595838796246949347,48517,1595838796246375284,/novatel/imu,INSPVAA,USB3,0,15.5,FINESTEERING,2116,117078.58,16777216,0,0,0,1,0,0,0,0,0,0,0,0,0,0,0,0,1,0,0,0,0,0,0,14102,2116,117078.58,48.796201996,1.98632344602,201.28,-0.0007,-0.0007,-0.0017,-0.471575731,-0.68166736,215.255498535,INS_SOLUTION_GOOD
1595838796256274187,48518,1595838796254965564,/novatel/imu,INSPVAA,USB3,0,15.5,FINESTEERING,2116,117078.59,16777216,0,0,0,1,0,0,0,0,0,0,0,0,0,0,0,0,1,0,0,0,0,0,0,14102,2116,117078.59,48.7962019958,1.98632344602,201.28,-0.0021,-0.0014,-0.0016,-0.47049612,-0.679554545,215.25644819,INS_SOLUTION_GOOD
1595838796272193962,48519,1595838796271816489,/novatel/imu,INSPVAA,USB3,0,15.5,FINESTEERING,2116,117078.6,16777216,0,0,0,1,0,0,0,0,0,0,0,0,0,0,0,0,1,0,0,0,0,0,0,14102,2116,117078.6,48.7962019959,1.98632344601,201.28,-0.0016,-0.0022,-0.0013,-0.471825382,-0.67996071,215.255657885,INS_SOLUTION_GOOD
1595838796276109158,48520,1595838796275749499,/novatel/imu,INSPVAA,USB3,0,15.5,FINESTEERING,2116,117078.61,16777216,0,0,0,1,0,0,0,0,0,0,0,0,0,0,0,0,1,0,0,0,0,0,0,14102,2116,117078.61,48.7962019959,1.98632344622,201.28,-0.0022,-0.0016,-0.002,-0.470219574,-0.680259577,215.254792389,INS_SOLUTION_GOOD
1595838796284717118,48521,1595838796284378765,/novatel/imu,INSPVAA,USB3,0,15.5,FINESTEERING,2116,117078.62,16777216,0,0,0,1,0,0,0,0,0,0,0,0,0,0,0,0,1,0,0,0,0,0,0,14102,2116,117078.62,48.7962019957,1.98632344614,201.28,-0.0032,-0.0024,-0.0015,-0.469707902,-0.677628215,215.254053066,INS_SOLUTION_GOOD
1595838796295652590,48522,1595838796295121853,/novatel/imu,INSPVAA,USB3,0,15.5,FINESTEERING,2116,117078.63,16777216,0,0,0,1,0,0,0,0,0,0,0,0,0,0,0,0,1,0,0,0,0,0,0,14102,2116,117078.63,48.7962019959,1.9863234462,201.28,-0.0013,-0.0023,-0.0016,-0.471382417,-0.68027396,215.255192557,INS_SOLUTION_GOOD
1595838796304806869,48523,1595838796304564126,/novatel/imu,INSPVAA,USB3,0,15.5,FINESTEERING,2116,117078.64,16777216,0,0,0,1,0,0,0,0,0,0,0,0,0,0,0,0,1,0,0,0,0,0,0,14102,2116,117078.64,48.796201996,1.98632344629,201.28,-0.0013,-0.0021,-0.0011,-0.471405052,-0.680997012,215.255146843,INS_SOLUTION_GOOD
1595838796322521882,48524,1595838796322248066,/novatel/imu,INSPVAA,USB3,0,15.5,FINESTEERING,2116,117078.65,16777216,0,0,0,1,0,0,0,0,0,0,0,0,0,0,0,0,1,0,0,0,0,0,0,14102,2116,117078.65,48.796201996,1.98632344627,201.28,-0.0015,-0.0024,-0.0011,-0.471955197,-0.680111166,215.254188767,INS_SOLUTION_GOOD
1595838796325981738,48525,1595838796325681780,/novatel/imu,INSPVAA,USB3,0,15.5,FINESTEERING,2116,117078.66,16777216,0,0,0,1,0,0,0,0,0,0,0,0,0,0,0,0,1,0,0,0,0,0,0,14102,2116,117078.66,48.7962019959,1.98632344635,201.28,-0.0022,-0.0023,-0.001,-0.471186258,-0.679572241,215.253777178,INS_SOLUTION_GOOD
1595838796335448244,48526,1595838796333759189,/novatel/imu,INSPVAA,USB3,0,15.5,FINESTEERING,2116,117078.67,16777216,0,0,0,1,0,0,0,0,0,0,0,0,0,0,0,0,1,0,0,0,0,0,0,14102,2116,117078.67,48.796201996,1.98632344626,201.28,-0.0018,-0.0026,-0.0008,-0.472482114,-0.67937429,215.252671979,INS_SOLUTION_GOOD
1595838796345249366,48527,1595838796345002170,/novatel/imu,INSPVAA,USB3,0,15.5,FINESTEERING,2116,117078.68,16777216,0,0,0,1,0,0,0,0,0,0,0,0,0,0,0,0,1,0,0,0,0,0,0,14102,2116,117078.68,48.796201996,1.98632344637,201.28,-0.0021,-0.0019,-0.0006,-0.471801828,-0.679452654,215.252198225,INS_SOLUTION_GOOD
1595838796364177185,48528,1595838796363792731,/novatel/imu,INSPVAA,USB3,0,15.5,FINESTEERING,2116,117078.69,16777216,0,0,0,1,0,0,0,0,0,0,0,0,0,0,0,0,1,0,0,0,0,0,0,14102,2116,117078.69,48.7962019962,1.98632344664,201.28,-0.0007,-0.0009,-0.0004,-0.47166702,-0.682707217,215.251774946,INS_SOLUTION_GOOD
1595838796376691242,48529,1595838796373097561,/novatel/imu,INSPVAA,USB3,0,15.5,FINESTEERING,2116,117078.7,16777216,0,0,0,1,0,0,0,0,0,0,0,0,0,0,0,0,1,0,0,0,0,0,0,14102,2116,117078.7,48.7962019961,1.9863234466,201.28,-0.0021,-0.0014,-0.0002,-0.472041035,-0.681335869,215.252076429,INS_SOLUTION_GOOD
1595838796376707727,48530,1595838796376106381,/novatel/imu,INSPVAA,USB3,0,15.5,FINESTEERING,2116,117078.71,16777216,0,0,0,1,0,0,0,0,0,0,0,0,0,0,0,0,1,0,0,0,0,0,0,14102,2116,117078.71,48.7962019962,1.98632344664,201.28,-0.0014,-0.0013,0.0004,-0.472697762,-0.682307163,215.251109207,INS_SOLUTION_GOOD
1595838796386294063,48531,1595838796385562140,/novatel/imu,INSPVAA,USB3,0,15.5,FINESTEERING,2116,117078.72,16777216,0,0,0,1,0,0,0,0,0,0,0,0,0,0,0,0,1,0,0,0,0,0,0,14102,2116,117078.72,48.7962019962,1.98632344668,201.2799,-0.0017,-0.0011,0.0005,-0.472557941,-0.682028045,215.251697647,INS_SOLUTION_GOOD
1595838796396870558,48532,1595838796396201136,/novatel/imu,INSPVAA,USB3,0,15.5,FINESTEERING,2116,117078.73,16777216,0,0,0,1,0,0,0,0,0,0,0,0,0,0,0,0,1,0,0,0,0,0,0,14102,2116,117078.73,48.7962019962,1.98632344683,201.2799,-0.002,-0.0004,0.0005,-0.471521806,-0.682107729,215.252770321,INS_SOLUTION_GOOD
1595838796408455301,48533,1595838796407979395,/novatel/imu,INSPVAA,USB3,0,15.5,FINESTEERING,2116,117078.74,16777216,0,0,0,1,0,0,0,0,0,0,0,0,0,0,0,0,1,0,0,0,0,0,0,14102,2116,117078.74,48.7962019962,1.98632344683,201.2799,-0.0018,-0.0007,0.0005,-0.472019168,-0.682272306,215.250709224,INS_SOLUTION_GOOD
1595838796424335392,48534,1595838796424016235,/novatel/imu,INSPVAA,USB3,0,15.5,FINESTEERING,2116,117078.75,16777216,0,0,0,1,0,0,0,0,0,0,0,0,0,0,0,0,1,0,0,0,0,0,0,14102,2116,117078.75,48.7962019961,1.98632344675,201.2799,-0.0018,-0.0011,0.0006,-0.472566461,-0.6805178,215.250735484,INS_SOLUTION_GOOD
1595838796426786103,48535,1595838796426422462,/novatel/imu,INSPVAA,USB3,0,15.5,FINESTEERING,2116,117078.76,16777216,0,0,0,1,0,0,0,0,0,0,0,0,0,0,0,0,1,0,0,0,0,0,0,14102,2116,117078.76,48.7962019961,1.98632344674,201.2799,-0.0018,-0.0009,0.0,-0.472840598,-0.680136099,215.250524096,INS_SOLUTION_GOOD
1595838796435221959,48536,1595838796434886922,/novatel/imu,INSPVAA,USB3,0,15.5,FINESTEERING,2116,117078.77,16777216,0,0,0,1,0,0,0,0,0,0,0,0,0,0,0,0,1,0,0,0,0,0,0,14102,2116,117078.77,48.7962019962,1.98632344699,201.2799,-0.0022,-0.0004,-0.001,-0.471909344,-0.681911922,215.249882676,INS_SOLUTION_GOOD
1595838796445799470,48537,1595838796444791203,/novatel/imu,INSPVAA,USB3,0,15.5,FINESTEERING,2116,117078.78,16777216,0,0,0,1,0,0,0,0,0,0,0,0,0,0,0,0,1,0,0,0,0,0,0,14102,2116,117078.78,48.7962019963,1.98632344685,201.2799,-0.0028,-0.0011,-0.0018,-0.47368064,-0.681647479,215.249400288,INS_SOLUTION_GOOD
1595838796457051093,48538,1595838796456584953,/novatel/imu,INSPVAA,USB3,0,15.5,FINESTEERING,2116,117078.79,16777216,0,0,0,1,0,0,0,0,0,0,0,0,0,0,0,0,1,0,0,0,0,0,0,14102,2116,117078.79,48.7962019963,1.98632344672,201.2799,-0.0038,-0.0019,-0.0026,-0.475347756,-0.681412835,215.250402287,INS_SOLUTION_GOOD
1595838796474003652,48539,1595838796473739823,/novatel/imu,INSPVAA,USB3,0,15.5,FINESTEERING,2116,117078.8,16777216,0,0,0,1,0,0,0,0,0,0,0,0,0,0,0,0,1,0,0,0,0,0,0,14102,2116,117078.8,48.7962019965,1.9863234469,201.2799,-0.0047,-0.0021,-0.0034,-0.475541183,-0.683006378,215.251319409,INS_SOLUTION_GOOD
1595838796483116581,48540,1595838796480152331,/novatel/imu,INSPVAA,USB3,0,15.5,FINESTEERING,2116,117078.81,16777216,0,0,0,1,0,0,0,0,0,0,0,0,0,0,0,0,1,0,0,0,0,0,0,14102,2116,117078.81,48.7962019963,1.98632344669,201.2799,-0.0081,-0.0045,-0.0049,-0.475942107,-0.679766032,215.251943393,INS_SOLUTION_GOOD
1595838796493860168,48541,1595838796493474929,/novatel/imu,INSPVAA,USB3,0,15.5,FINESTEERING,2116,117078.82,16777216,0,0,0,1,0,0,0,0,0,0,0,0,0,0,0,0,1,0,0,0,0,0,0,14102,2116,117078.82,48.7962019963,1.98632344666,201.2799,-0.0095,-0.006,-0.0064,-0.476649871,-0.679659295,215.252815398,INS_SOLUTION_GOOD
1595838796494253812,48542,1595838796494008117,/novatel/imu,INSPVAA,USB3,0,15.5,FINESTEERING,2116,117078.83,16777216,0,0,0,1,0,0,0,0,0,0,0,0,0,0,0,0,1,0,0,0,0,0,0,14102,2116,117078.83,48.7962019962,1.98632344656,201.2799,-0.0119,-0.0077,-0.0065,-0.476437,-0.677193031,215.25429292,INS_SOLUTION_GOOD
1595838796506987047,48543,1595838796506037171,/novatel/imu,INSPVAA,USB3,0,15.5,FINESTEERING,2116,117078.84,16777216,0,0,0,1,0,0,0,0,0,0,0,0,0,0,0,0,1,0,0,0,0,0,0,14102,2116,117078.84,48.7962019961,1.98632344652,201.2799,-0.0142,-0.0095,-0.0074,-0.47661033,-0.676120926,215.253389484,INS_SOLUTION_GOOD
1595838796523558691,48544,1595838796522829094,/novatel/imu,INSPVAA,USB3,0,15.5,FINESTEERING,2116,117078.85,16777216,0,0,0,1,0,0,0,0,0,0,0,0,0,0,0,0,1,0,0,0,0,0,0,14102,2116,117078.85,48.796201996,1.98632344623,201.2799,-0.017,-0.0127,-0.0081,-0.478133865,-0.672656572,215.252651722,INS_SOLUTION_GOOD
1595838796523901686,48545,1595838796523678755,/novatel/imu,INSPVAA,USB3,0,15.5,FINESTEERING,2116,117078.86,16777216,0,0,0,1,0,0,0,0,0,0,0,0,0,0,0,0,1,0,0,0,0,0,0,14102,2116,117078.86,48.7962019957,1.98632344612,201.2799,-0.0204,-0.0148,-0.0088,-0.477078503,-0.668925968,215.252677895,INS_SOLUTION_GOOD
1595838796533868243,48546,1595838796533641309,/novatel/imu,INSPVAA,USB3,0,15.5,FINESTEERING,2116,117078.87,16777216,0,0,0,1,0,0,0,0,0,0,0,0,0,0,0,0,1,0,0,0,0,0,0,14102,2116,117078.87,48.7962019957,1.98632344595,201.2799,-0.0217,-0.0173,-0.0087,-0.478783579,-0.668028077,215.255042011,INS_SOLUTION_GOOD
1595838796545949588,48547,1595838796544377094,/novatel/imu,INSPVAA,USB3,0,15.5,FINESTEERING,2116,117078.88,16777216,0,0,0,1,0,0,0,0,0,0,0,0,0,0,0,0,1,0,0,0,0,0,0,14102,2116,117078.88,48.7962019956,1.98632344572,201.2799,-0.0236,-0.0193,-0.008,-0.479799822,-0.665330754,215.253345387,INS_SOLUTION_GOOD
1595838796554473178,48548,1595838796554165845,/novatel/imu,INSPVAA,USB3,0,15.5,FINESTEERING,2116,117078.89,16777216,0,0,0,1,0,0,0,0,0,0,0,0,0,0,0,0,1,0,0,0,0,0,0,14102,2116,117078.89,48.7962019955,1.98632344567,201.2799,-0.0258,-0.0207,-0.0084,-0.479314029,-0.663429608,215.251143458,INS_SOLUTION_GOOD
1595838796573008012,48549,1595838796571813830,/novatel/imu,INSPVAA,USB3,0,15.5,FINESTEERING,2116,117078.9,16777216,0,0,0,1,0,0,0,0,0,0,0,0,0,0,0,0,1,0,0,0,0,0,0,14102,2116,117078.9,48.7962019953,1.98632344542,201.2798,-0.0293,-0.0237,-0.0075,-0.480494905,-0.659985321,215.254821956,INS_SOLUTION_GOOD
1595838796575672674,48550,1595838796575303693,/novatel/imu,INSPVAA,USB3,0,15.5,FINESTEERING,2116,117078.91,16777216,0,0,0,1,0,0,0,0,0,0,0,0,0,0,0,0,1,0,0,0,0,0,0,14102,2116,117078.91,48.7962019953,1.98632344539,201.2798,-0.0319,-0.0258,-0.0079,-0.480775805,-0.659306653,215.252575431,INS_SOLUTION_GOOD
1595838796587148274,48551,1595838796586567443,/novatel/imu,INSPVAA,USB3,0,15.5,FINESTEERING,2116,117078.92,16777216,0,0,0,1,0,0,0,0,0,0,0,0,0,0,0,0,1,0,0,0,0,0,0,14102,2116,117078.92,48.7962019953,1.98632344526,201.2798,-0.0341,-0.0276,-0.0071,-0.481929022,-0.658468984,215.252580965,INS_SOLUTION_GOOD
1595838796595356096,48552,1595838796594951076,/novatel/imu,INSPVAA,USB3,0,15.5,FINESTEERING,2116,117078.93,16777216,0,0,0,1,0,0,0,0,0,0,0,0,0,0,0,0,1,0,0,0,0,0,0,14102,2116,117078.93,48.7962019951,1.98632344517,201.2798,-0.0366,-0.0292,-0.0068,-0.48175377,-0.656224124,215.251977229,INS_SOLUTION_GOOD
1595838796605173365,48553,1595838796604859118,/novatel/imu,INSPVAA,USB3,0,15.5,FINESTEERING,2116,117078.94,16777216,0,0,0,1,0,0,0,0,0,0,0,0,0,0,0,0,1,0,0,0,0,0,0,14102,2116,117078.94,48.796201995,1.98632344503,201.2798,-0.0401,-0.0312,-0.0062,-0.481887636,-0.653787421,215.251725132,INS_SOLUTION_GOOD
1595838796623913940,48554,1595838796623487270,/novatel/imu,INSPVAA,USB3,0,15.5,FINESTEERING,2116,117078.95,16777216,0,0,0,1,0,0,0,0,0,0,0,0,0,0,0,0,1,0,0,0,0,0,0,14102,2116,117078.95,48.7962019949,1.98632344493,201.2798,-0.0439,-0.0339,-0.0073,-0.482157513,-0.651608031,215.252438484,INS_SOLUTION_GOOD
1595838796626027387,48555,1595838796625691808,/novatel/imu,INSPVAA,USB3,0,15.5,FINESTEERING,2116,117078.96,16777216,0,0,0,1,0,0,0,0,0,0,0,0,0,0,0,0,1,0,0,0,0,0,0,14102,2116,117078.96,48.7962019949,1.986323445,201.2798,-0.047,-0.0356,-0.0074,-0.481726758,-0.651560663,215.250621115,INS_SOLUTION_GOOD
1595838796635488627,48556,1595838796634854713,/novatel/imu,INSPVAA,USB3,0,15.5,FINESTEERING,2116,117078.97,16777216,0,0,0,1,0,0,0,0,0,0,0,0,0,0,0,0,1,0,0,0,0,0,0,14102,2116,117078.97,48.7962019947,1.98632344517,201.2798,-0.0505,-0.0368,-0.0079,-0.479325595,-0.650205683,215.253031839,INS_SOLUTION_GOOD
1595838796644084963,48557,1595838796643749526,/novatel/imu,INSPVAA,USB3,0,15.5,FINESTEERING,2116,117078.98,16777216,0,0,0,1,0,0,0,0,0,0,0,0,0,0,0,0,1,0,0,0,0,0,0,14102,2116,117078.98,48.7962019948,1.98632344491,201.2798,-0.0519,-0.0393,-0.0069,-0.482389339,-0.650046728,215.252786463,INS_SOLUTION_GOOD
1595838796656518099,48558,1595838796655896875,/novatel/imu,INSPVAA,USB3,0,15.5,FINESTEERING,2116,117078.99,16777216,0,0,0,1,0,0,0,0,0,0,0,0,0,0,0,0,1,0,0,0,0,0,0,14102,2116,117078.99,48.7962019945,1.98632344478,201.2798,-0.057,-0.0418,-0.0072,-0.480930526,-0.645502289,215.251876609,INS_SOLUTION_GOOD
1595838796681007372,48559,1595838796680600358,/novatel/imu,INSPVAA,USB3,0,15.5,FINESTEERING,2116,117079.0,16777216,0,0,0,1,0,0,0,0,0,0,0,0,0,0,0,0,1,0,0,0,0,0,0,14102,2116,117079.0,48.7962019945,1.98632344492,201.2798,-0.0595,-0.0436,-0.0073,-0.480649081,-0.646276953,215.253010149,INS_SOLUTION_GOOD
1595838796687681698,48560,1595838796686768750,/novatel/imu,INSPVAA,USB3,0,15.5,FINESTEERING,2116,117079.01,16777216,0,0,0,1,0,0,0,0,0,0,0,0,0,0,0,0,1,0,0,0,0,0,0,14102,2116,117079.01,48.7962019945,1.9863234449,201.2798,-0.0624,-0.0458,-0.0069,-0.481134988,-0.646199851,215.252689067,INS_SOLUTION_GOOD
1595838796690069229,48561,1595838796687738078,/novatel/imu,INSPVAA,USB3,0,15.5,FINESTEERING,2116,117079.02,16777216,0,0,0,1,0,0,0,0,0,0,0,0,0,0,0,0,1,0,0,0,0,0,0,14102,2116,117079.02,48.7962019944,1.98632344492,201.2798,-0.0664,-0.0485,-0.0067,-0.480290108,-0.644974863,215.252831845,INS_SOLUTION_GOOD
1595838796695392086,48562,1595838796695095007,/novatel/imu,INSPVAA,USB3,0,15.5,FINESTEERING,2116,117079.03,16777216,0,0,0,1,0,0,0,0,0,0,0,0,0,0,0,0,1,0,0,0,0,0,0,14102,2116,117079.03,48.7962019944,1.98632344486,201.2798,-0.0694,-0.051,-0.0069,-0.481086957,-0.644673112,215.252452143,INS_SOLUTION_GOOD
1595838796707379141,48563,1595838796706298947,/novatel/imu,INSPVAA,USB3,0,15.5,FINESTEERING,2116,117079.04,16777216,0,0,0,1,0,0,0,0,0,0,0,0,0,0,0,0,1,0,0,0,0,0,0,14102,2116,117079.04,48.7962019945,1.98632344481,201.2798,-0.0713,-0.0532,-0.0065,-0.482262298,-0.645195551,215.254947257,INS_SOLUTION_GOOD
1595838796721776428,48564,1595838796721379335,/novatel/imu,INSPVAA,USB3,0,15.5,FINESTEERING,2116,117079.05,16777216,0,0,0,1,0,0,0,0,0,0,0,0,0,0,0,0,1,0,0,0,0,0,0,14102,2116,117079.05,48.7962019942,1.98632344484,201.2797,-0.0762,-0.0556,-0.0065,-0.480397957,-0.642240439,215.253985422,INS_SOLUTION_GOOD
1595838796727141556,48565,1595838796726578604,/novatel/imu,INSPVAA,USB3,0,15.5,FINESTEERING,2116,117079.06,16777216,0,0,0,1,0,0,0,0,0,0,0,0,0,0,0,0,1,0,0,0,0,0,0,14102,2116,117079.06,48.7962019942,1.98632344478,201.2797,-0.0786,-0.0581,-0.0062,-0.480934742,-0.641794998,215.254437393,INS_SOLUTION_GOOD
1595838796735637955,48566,1595838796735224518,/novatel/imu,INSPVAA,USB3,0,15.5,FINESTEERING,2116,117079.07,16777216,0,0,0,1,0,0,0,0,0,0,0,0,0,0,0,0,1,0,0,0,0,0,0,14102,2116,117079.07,48.7962019942,1.9863234446,201.2797,-0.0816,-0.0613,-0.0056,-0.482291991,-0.640668554,215.2549391,INS_SOLUTION_GOOD
1595838796745529616,48567,1595838796745089589,/novatel/imu,INSPVAA,USB3,0,15.5,FINESTEERING,2116,117079.08,16777216,0,0,0,1,0,0,0,0,0,0,0,0,0,0,0,0,1,0,0,0,0,0,0,14102,2116,117079.08,48.7962019943,1.98632344458,201.2797,-0.0843,-0.0642,-0.006,-0.483812692,-0.642212162,215.255450427,INS_SOLUTION_GOOD
1595838796758727109,48568,1595838796758065946,/novatel/imu,INSPVAA,USB3,0,15.5,FINESTEERING,2116,117079.09,16777216,0,0,0,1,0,0,0,0,0,0,0,0,0,0,0,0,1,0,0,0,0,0,0,14102,2116,117079.09,48.7962019942,1.98632344444,201.2797,-0.0886,-0.0673,-0.0057,-0.484707952,-0.640962068,215.258771105,INS_SOLUTION_GOOD
1595838796771466790,48569,1595838796771065696,/novatel/imu,INSPVAA,USB3,0,15.5,FINESTEERING,2116,117079.1,16777216,0,0,0,1,0,0,0,0,0,0,0,0,0,0,0,0,1,0,0,0,0,0,0,14102,2116,117079.1,48.7962019096,1.98632352707,201.2534,-0.0918,-0.0691,-0.0057,-0.483321638,-0.641491247,215.257291453,INS_SOLUTION_GOOD
1595838796775309004,48570,1595838796774937134,/novatel/imu,INSPVAA,USB3,0,15.5,FINESTEERING,2116,117079.11,16777216,0,0,0,1,0,0,0,0,0,0,0,0,0,0,0,0,1,0,0,0,0,0,0,14102,2116,117079.11,48.796201901,1.98632351748,201.2533,-0.0956,-0.0729,-0.0059,-0.484776558,-0.638837842,215.259133804,INS_SOLUTION_GOOD
1595838796785092459,48571,1595838796784768814,/novatel/imu,INSPVAA,USB3,0,15.5,FINESTEERING,2116,117079.12,16777216,0,0,0,1,0,0,0,0,0,0,0,0,0,0,0,0,1,0,0,0,0,0,0,14102,2116,117079.12,48.7962018923,1.98632350787,201.2532,-0.0985,-0.0752,-0.0056,-0.484157523,-0.639636601,215.261559898,INS_SOLUTION_GOOD
1595838796794748431,48572,1595838796794511724,/novatel/imu,INSPVAA,USB3,0,15.5,FINESTEERING,2116,117079.13,16777216,0,0,0,1,0,0,0,0,0,0,0,0,0,0,0,0,1,0,0,0,0,0,0,14102,2116,117079.13,48.7962018831,1.98632349775,201.2531,-0.102,-0.0779,-0.0062,-0.484114828,-0.639181969,215.261717342,INS_SOLUTION_GOOD
1595838796804409970,48573,1595838796804029468,/novatel/imu,INSPVAA,USB3,0,15.5,FINESTEERING,2116,117079.14,16777216,0,0,0,1,0,0,0,0,0,0,0,0,0,0,0,0,1,0,0,0,0,0,0,14102,2116,117079.14,48.7962018736,1.98632348723,201.253,-0.1059,-0.0811,-0.0054,-0.483239169,-0.638012971,215.260927541,INS_SOLUTION_GOOD
1595838796823747153,48574,1595838796823435433,/novatel/imu,INSPVAA,USB3,0,15.5,FINESTEERING,2116,117079.15,16777216,0,0,0,1,0,0,0,0,0,0,0,0,0,0,0,0,1,0,0,0,0,0,0,14102,2116,117079.15,48.7962018638,1.9863234762,201.2529,-0.1099,-0.0844,-0.0053,-0.482864993,-0.635337226,215.260734757,INS_SOLUTION_GOOD
1595838796827421425,48575,1595838796827071057,/novatel/imu,INSPVAA,USB3,0,15.5,FINESTEERING,2116,117079.16,16777216,0,0,0,1,0,0,0,0,0,0,0,0,0,0,0,0,1,0,0,0,0,0,0,14102,2116,117079.16,48.7962018535,1.98632346498,201.2528,-0.1146,-0.0871,-0.0052,-0.4798663,-0.633786734,215.261462758,INS_SOLUTION_GOOD
1595838796835455263,48576,1595838796835192726,/novatel/imu,INSPVAA,USB3,0,15.5,FINESTEERING,2116,117079.17,16777216,0,0,0,1,0,0,0,0,0,0,0,0,0,0,0,0,1,0,0,0,0,0,0,14102,2116,117079.17,48.7962018432,1.9863234531,201.2527,-0.1173,-0.0905,-0.006,-0.481054176,-0.633820263,215.264014263,INS_SOLUTION_GOOD
1595838796845084048,48577,1595838796844815606,/novatel/imu,INSPVAA,USB3,0,15.5,FINESTEERING,2116,117079.18,16777216,0,0,0,1,0,0,0,0,0,0,0,0,0,0,0,0,1,0,0,0,0,0,0,14102,2116,117079.18,48.7962018323,1.98632344113,201.2526,-0.1212,-0.0928,-0.0055,-0.478058347,-0.633663508,215.263587906,INS_SOLUTION_GOOD
1595838796853986444,48578,1595838796853667396,/novatel/imu,INSPVAA,USB3,0,15.5,FINESTEERING,2116,117079.19,16777216,0,0,0,1,0,0,0,0,0,0,0,0,0,0,0,0,1,0,0,0,0,0,0,14102,2116,117079.19,48.7962018211,1.9863234284,201.2525,-0.125,-0.0966,-0.0059,-0.47807042,-0.632156265,215.262766275,INS_SOLUTION_GOOD
1595838796872665147,48579,1595838796872259977,/novatel/imu,INSPVAA,USB3,0,15.5,FINESTEERING,2116,117079.2,16777216,0,0,0,1,0,0,0,0,0,0,0,0,0,0,0,0,1,0,0,0,0,0,0,14102,2116,117079.2,48.7962018097,1.98632341544,201.2524,-0.129,-0.0993,-0.0056,-0.476900852,-0.631468533,215.265311842,INS_SOLUTION_GOOD
1595838796875022196,48580,1595838796874776673,/novatel/imu,INSPVAA,USB3,0,15.5,FINESTEERING,2116,117079.21,16777216,0,0,0,1,0,0,0,0,0,0,0,0,0,0,0,0,1,0,0,0,0,0,0,14102,2116,117079.21,48.7962017977,1.98632340186,201.2523,-0.1337,-0.1029,-0.0057,-0.476440643,-0.629423116,215.26490932,INS_SOLUTION_GOOD
1595838796885229784,48581,1595838796884839357,/novatel/imu,INSPVAA,USB3,0,15.5,FINESTEERING,2116,117079.22,16777216,0,0,0,1,0,0,0,0,0,0,0,0,0,0,0,0,1,0,0,0,0,0,0,14102,2116,117079.22,48.7962017854,1.98632338796,201.2522,-0.1382,-0.1061,-0.0058,-0.475092954,-0.628219793,215.265570011,INS_SOLUTION_GOOD
1595838796896804155,48582,1595838796896311702,/novatel/imu,INSPVAA,USB3,0,15.5,FINESTEERING,2116,117079.23,16777216,0,0,0,1,0,0,0,0,0,0,0,0,0,0,0,0,1,0,0,0,0,0,0,14102,2116,117079.23,48.7962017726,1.98632337343,201.2521,-0.1427,-0.1098,-0.0061,-0.474677091,-0.625055526,215.265366809,INS_SOLUTION_GOOD
1595838796905713219,48583,1595838796905242481,/novatel/imu,INSPVAA,USB3,0,15.5,FINESTEERING,2116,117079.24,16777216,0,0,0,1,0,0,0,0,0,0,0,0,0,0,0,0,1,0,0,0,0,0,0,14102,2116,117079.24,48.7962017596,1.98632335859,201.252,-0.1467,-0.1131,-0.0062,-0.474467267,-0.623593654,215.265750307,INS_SOLUTION_GOOD
1595838796925522908,48584,1595838796925057307,/novatel/imu,INSPVAA,USB3,0,12.5,FINESTEERING,2116,117079.25,16777216,0,0,0,1,0,0,0,0,0,0,0,0,0,0,0,0,1,0,0,0,0,0,0,14102,2116,117079.25,48.7962017463,1.98632334371,201.2519,-0.15,-0.1146,-0.0064,-0.472433325,-0.624955643,215.267230225,INS_SOLUTION_GOOD
1595838796928294531,48585,1595838796927862903,/novatel/imu,INSPVAA,USB3,0,12.5,FINESTEERING,2116,117079.26,16777216,0,0,0,1,0,0,0,0,0,0,0,0,0,0,0,0,1,0,0,0,0,0,0,14102,2116,117079.26,48.7962017324,1.9863233279,201.2518,-0.1552,-0.1188,-0.0063,-0.472462093,-0.621863401,215.268688064,INS_SOLUTION_GOOD
1595838796935073828,48586,1595838796934783334,/novatel/imu,INSPVAA,USB3,0,12.5,FINESTEERING,2116,117079.27,16777216,0,0,0,1,0,0,0,0,0,0,0,0,0,0,0,0,1,0,0,0,0,0,0,14102,2116,117079.27,48.796201718,1.98632331197,201.2517,-0.161,-0.1219,-0.0068,-0.469967977,-0.621539441,215.267443781,INS_SOLUTION_GOOD
1595838796946512348,48587,1595838796946063264,/novatel/imu,INSPVAA,USB3,0,12.5,FINESTEERING,2116,117079.28,16777216,0,0,0,1,0,0,0,0,0,0,0,0,0,0,0,0,1,0,0,0,0,0,0,14102,2116,117079.28,48.7962017033,1.98632329518,201.2516,-0.166,-0.1263,-0.0076,-0.470461127,-0.619526033,215.268772722,INS_SOLUTION_GOOD
1595838796954838356,48588,1595838796954268330,/novatel/imu,INSPVAA,USB3,0,12.5,FINESTEERING,2116,117079.29,16777216,0,0,0,1,0,0,0,0,0,0,0,0,0,0,0,0,1,0,0,0,0,0,0,14102,2116,117079.29,48.7962016881,1.98632327809,201.2515,-0.1703,-0.1293,-0.0074,-0.470102931,-0.61804956,215.270675202,INS_SOLUTION_GOOD
1595838796973653129,48589,1595838796973294984,/novatel/imu,INSPVAA,USB3,0,12.5,FINESTEERING,2116,117079.3,16777216,0,0,0,1,0,0,0,0,0,0,0,0,0,0,0,0,1,0,0,0,0,0,0,14102,2116,117079.3,48.7962016724,1.98632326042,201.2513,-0.176,-0.1332,-0.0074,-0.469194177,-0.614609066,215.270047745,INS_SOLUTION_GOOD
1595838796976425606,48590,1595838796976102045,/novatel/imu,INSPVAA,USB3,0,12.5,FINESTEERING,2116,117079.31,16777216,0,0,0,1,0,0,0,0,0,0,0,0,0,0,0,0,1,0,0,0,0,0,0,14102,2116,117079.31,48.7962016562,1.98632324223,201.2512,-0.1817,-0.1374,-0.0083,-0.46861107,-0.612299364,215.27014995,INS_SOLUTION_GOOD
1595838796984594478,48591,1595838796984173957,/novatel/imu,INSPVAA,USB3,0,12.5,FINESTEERING,2116,117079.32,16777216,0,0,0,1,0,0,0,0,0,0,0,0,0,0,0,0,1,0,0,0,0,0,0,14102,2116,117079.32,48.7962016396,1.9863232234,201.2511,-0.1868,-0.1421,-0.009,-0.469098496,-0.610020842,215.27012482,INS_SOLUTION_GOOD
1595838796994390184,48592,1595838796994012280,/novatel/imu,INSPVAA,USB3,0,12.5,FINESTEERING,2116,117079.33,16777216,0,0,0,1,0,0,0,0,0,0,0,0,0,0,0,0,1,0,0,0,0,0,0,14102,2116,117079.33,48.7962016224,1.98632320434,201.251,-0.1923,-0.1452,-0.0099,-0.466389334,-0.607576111,215.272793941,INS_SOLUTION_GOOD
1595838797005052010,48593,1595838797004703332,/novatel/imu,INSPVAA,USB3,0,12.5,FINESTEERING,2116,117079.34,16777216,0,0,0,1,0,0,0,0,0,0,0,0,0,0,0,0,1,0,0,0,0,0,0,14102,2116,117079.34,48.796201605,1.98632318451,201.2508,-0.1963,-0.1495,-0.0093,-0.467166681,-0.60559995,215.272711677,INS_SOLUTION_GOOD
1595838797023827226,48594,1595838797023390672,/novatel/imu,INSPVAA,USB3,0,12.5,FINESTEERING,2116,117079.35,16777216,0,0,0,1,0,0,0,0,0,0,0,0,0,0,0,0,1,0,0,0,0,0,0,14102,2116,117079.35,48.7962015869,1.98632316403,201.2507,-0.2025,-0.1541,-0.0089,-0.467308795,-0.601806744,215.274595952,INS_SOLUTION_GOOD
1595838797025225657,48595,1595838797024910399,/novatel/imu,INSPVAA,USB3,0,12.5,FINESTEERING,2116,117079.36,16777216,0,0,0,1,0,0,0,0,0,0,0,0,0,0,0,0,1,0,0,0,0,0,0,14102,2116,117079.36,48.7962015683,1.98632314314,201.2505,-0.2084,-0.1587,-0.0104,-0.466230769,-0.6009489,215.275873681,INS_SOLUTION_GOOD
1595838797034721226,48596,1595838797034414111,/novatel/imu,INSPVAA,USB3,0,12.5,FINESTEERING,2116,117079.37,16777216,0,0,0,1,0,0,0,0,0,0,0,0,0,0,0,0,1,0,0,0,0,0,0,14102,2116,117079.37,48.7962015494,1.98632312166,201.2504,-0.2133,-0.1625,-0.0108,-0.465938763,-0.599847564,215.279424623,INS_SOLUTION_GOOD
1595838797045358513,48597,1595838797044914093,/novatel/imu,INSPVAA,USB3,0,12.5,FINESTEERING,2116,117079.38,16777216,0,0,0,1,0,0,0,0,0,0,0,0,0,0,0,0,1,0,0,0,0,0,0,14102,2116,117079.38,48.79620153,1.98632309929,201.2503,-0.218,-0.1675,-0.0101,-0.468415145,-0.597144651,215.279486398,INS_SOLUTION_GOOD
1595838797054979029,48598,1595838797054662408,/novatel/imu,INSPVAA,USB3,0,12.5,FINESTEERING,2116,117079.39,16777216,0,0,0,1,0,0,0,0,0,0,0,0,0,0,0,0,1,0,0,0,0,0,0,14102,2116,117079.39,48.7962015099,1.98632307641,201.2501,-0.2245,-0.1722,-0.0098,-0.469179662,-0.5936672,215.279982219,INS_SOLUTION_GOOD
1595838797073576955,48599,1595838797073173922,/novatel/imu,INSPVAA,USB3,0,12.5,FINESTEERING,2116,117079.4,16777216,0,0,0,1,0,0,0,0,0,0,0,0,0,0,0,0,1,0,0,0,0,0,0,14102,2116,117079.4,48.7962014893,1.98632305307,201.25,-0.2309,-0.1763,-0.0105,-0.468919649,-0.59026417,215.280778985,INS_SOLUTION_GOOD
1595838797075976706,48600,1595838797075719818,/novatel/imu,INSPVAA,USB3,0,12.5,FINESTEERING,2116,117079.41,16777216,0,0,0,1,0,0,0,0,0,0,0,0,0,0,0,0,1,0,0,0,0,0,0,14102,2116,117079.41,48.7962014681,1.98632302916,201.2498,-0.2374,-0.1804,-0.0109,-0.468095235,-0.587406684,215.280543922,INS_SOLUTION_GOOD
1595838797084358338,48601,1595838797083967733,/novatel/imu,INSPVAA,USB3,0,12.5,FINESTEERING,2116,117079.42,16777216,0,0,0,1,0,0,0,0,0,0,0,0,0,0,0,0,1,0,0,0,0,0,0,14102,2116,117079.42,48.7962014464,1.98632300464,201.2497,-0.2433,-0.1848,-0.0106,-0.468451735,-0.58559553,215.2821695,INS_SOLUTION_GOOD
1595838797093983508,48602,1595838797093567668,/novatel/imu,INSPVAA,USB3,0,12.5,FINESTEERING,2116,117079.43,16777216,0,0,0,1,0,0,0,0,0,0,0,0,0,0,0,0,1,0,0,0,0,0,0,14102,2116,117079.43,48.7962014243,1.98632297929,201.2495,-0.2489,-0.1901,-0.01,-0.470294528,-0.582365873,215.284524595,INS_SOLUTION_GOOD
1595838797105397090,48603,1595838797104965808,/novatel/imu,INSPVAA,USB3,0,12.5,FINESTEERING,2116,117079.44,16777216,0,0,0,1,0,0,0,0,0,0,0,0,0,0,0,0,1,0,0,0,0,0,0,14102,2116,117079.44,48.7962014016,1.98632295374,201.2494,-0.2544,-0.1932,-0.0105,-0.469860783,-0.581097524,215.286489397,INS_SOLUTION_GOOD
1595838797123655636,48604,1595838797122729533,/novatel/imu,INSPVAA,USB3,0,12.5,FINESTEERING,2116,117079.45,16777216,0,0,0,1,0,0,0,0,0,0,0,0,0,0,0,0,1,0,0,0,0,0,0,14102,2116,117079.45,48.7962013782,1.98632292752,201.2492,-0.2617,-0.1978,-0.0106,-0.467517256,-0.57764758,215.286328399,INS_SOLUTION_GOOD
1595838797126187829,48605,1595838797125486133,/novatel/imu,INSPVAA,USB3,0,12.5,FINESTEERING,2116,117079.46,16777216,0,0,0,1,0,0,0,0,0,0,0,0,0,0,0,0,1,0,0,0,0,0,0,14102,2116,117079.46,48.7962013545,1.98632290043,201.2491,-0.2669,-0.203,-0.0107,-0.469469142,-0.576347823,215.287210125,INS_SOLUTION_GOOD
1595838797135429169,48606,1595838797134932755,/novatel/imu,INSPVAA,USB3,0,12.5,FINESTEERING,2116,117079.47,16777216,0,0,0,1,0,0,0,0,0,0,0,0,0,0,0,0,1,0,0,0,0,0,0,14102,2116,117079.47,48.79620133,1.98632287291,201.2489,-0.2737,-0.2073,-0.0107,-0.468062071,-0.573385677,215.288946426,INS_SOLUTION_GOOD
1595838797144105618,48607,1595838797143739398,/novatel/imu,INSPVAA,USB3,0,12.5,FINESTEERING,2116,117079.48,16777216,0,0,0,1,0,0,0,0,0,0,0,0,0,0,0,0,1,0,0,0,0,0,0,14102,2116,117079.48,48.796201305,1.98632284462,201.2488,-0.2801,-0.2123,-0.0106,-0.46775378,-0.570537771,215.288976087,INS_SOLUTION_GOOD
1595838797160671481,48608,1595838797156532009,/novatel/imu,INSPVAA,USB3,0,12.5,FINESTEERING,2116,117079.49,16777216,0,0,0,1,0,0,0,0,0,0,0,0,0,0,0,0,1,0,0,0,0,0,0,14102,2116,117079.49,48.7962012796,1.98632281577,201.2486,-0.2858,-0.217,-0.0104,-0.467953502,-0.568905886,215.291090957,INS_SOLUTION_GOOD
1595838797173340795,48609,1595838797173007772,/novatel/imu,INSPVAA,USB3,0,12.5,FINESTEERING,2116,117079.5,16777216,0,0,0,1,0,0,0,0,0,0,0,0,0,0,0,0,1,0,0,0,0,0,0,14102,2116,117079.5,48.7962012534,1.98632278638,201.2485,-0.293,-0.2213,-0.01,-0.465483648,-0.566232354,215.292515782,INS_SOLUTION_GOOD
1595838797177012164,48610,1595838797176640149,/novatel/imu,INSPVAA,USB3,0,12.5,FINESTEERING,2116,117079.51,16777216,0,0,0,1,0,0,0,0,0,0,0,0,0,0,0,0,1,0,0,0,0,0,0,14102,2116,117079.51,48.7962012267,1.98632275575,201.2484,-0.2996,-0.2282,-0.0107,-0.467458188,-0.562374014,215.294266112,INS_SOLUTION_GOOD
1595838797188244711,48611,1595838797186625418,/novatel/imu,INSPVAA,USB3,0,12.5,FINESTEERING,2116,117079.52,16777216,0,0,0,1,0,0,0,0,0,0,0,0,0,0,0,0,1,0,0,0,0,0,0,14102,2116,117079.52,48.7962011997,1.986322725,201.2482,-0.3043,-0.232,-0.0106,-0.467468126,-0.563375792,215.296265278,INS_SOLUTION_GOOD
1595838797195432955,48612,1595838797195102529,/novatel/imu,INSPVAA,USB3,0,12.5,FINESTEERING,2116,117079.53,16777216,0,0,0,1,0,0,0,0,0,0,0,0,0,0,0,0,1,0,0,0,0,0,0,14102,2116,117079.53,48.7962011718,1.98632269321,201.2481,-0.3114,-0.2379,-0.0099,-0.467852902,-0.560764589,215.295527068,INS_SOLUTION_GOOD
1595838797206803506,48613,1595838797206486365,/novatel/imu,INSPVAA,USB3,0,12.5,FINESTEERING,2116,117079.54,16777216,0,0,0,1,0,0,0,0,0,0,0,0,0,0,0,0,1,0,0,0,0,0,0,14102,2116,117079.54,48.7962011435,1.98632266068,201.2479,-0.3174,-0.2432,-0.0101,-0.469392026,-0.558570178,215.297525585,INS_SOLUTION_GOOD
1595838797226138999,48614,1595838797225494518,/novatel/imu,INSPVAA,USB3,0,12.5,FINESTEERING,2116,117079.55,16777216,0,0,0,1,0,0,0,0,0,0,0,0,0,0,0,0,1,0,0,0,0,0,0,14102,2116,117079.55,48.7962011147,1.98632262739,201.2478,-0.3231,-0.2488,-0.0086,-0.471662613,-0.556581465,215.298636439,INS_SOLUTION_GOOD
1595838797226181505,48615,1595838797225494518,/novatel/imu,INSPVAA,USB3,0,12.5,FINESTEERING,2116,117079.56,16777216,0,0,0,1,0,0,0,0,0,0,0,0,0,0,0,0,1,0,0,0,0,0,0,14102,2116,117079.56,48.7962010849,1.98632259336,201.2476,-0.3319,-0.2545,-0.0099,-0.472195628,-0.551586838,215.299295663,INS_SOLUTION_GOOD
1595838797235303249,48616,1595838797234816116,/novatel/imu,INSPVAA,USB3,0,12.5,FINESTEERING,2116,117079.57,16777216,0,0,0,1,0,0,0,0,0,0,0,0,0,0,0,0,1,0,0,0,0,0,0,14102,2116,117079.57,48.7962010549,1.98632255899,201.2475,-0.3373,-0.2584,-0.0094,-0.472261387,-0.551531051,215.300987843,INS_SOLUTION_GOOD
1595838797252704905,48617,1595838797243808453,/novatel/imu,INSPVAA,USB3,0,12.5,FINESTEERING,2116,117079.58,16777216,0,0,0,1,0,0,0,0,0,0,0,0,0,0,0,0,1,0,0,0,0,0,0,14102,2116,117079.58,48.796201024,1.98632252327,201.2474,-0.3452,-0.2652,-0.0083,-0.4755692,-0.54551292,215.303067671,INS_SOLUTION_GOOD
1595838797258888124,48618,1595838797258273204,/novatel/imu,INSPVAA,USB3,0,12.5,FINESTEERING,2116,117079.59,16777216,0,0,0,1,0,0,0,0,0,0,0,0,0,0,0,0,1,0,0,0,0,0,0,14102,2116,117079.59,48.7962009928,1.98632248743,201.2472,-0.351,-0.2693,-0.0091,-0.476883104,-0.545418608,215.304959718,INS_SOLUTION_GOOD
1595838797271747376,48619,1595838797271433761,/novatel/imu,INSPVAA,USB3,0,12.5,FINESTEERING,2116,117079.6,16777216,0,0,0,1,0,0,0,0,0,0,0,0,0,0,0,0,1,0,0,0,0,0,0,14102,2116,117079.6,48.7962009608,1.98632245083,201.2471,-0.3584,-0.2741,-0.0078,-0.477483986,-0.543571239,215.307405814,INS_SOLUTION_GOOD
1595838797275432222,48620,1595838797275034972,/novatel/imu,INSPVAA,USB3,0,12.5,FINESTEERING,2116,117079.61,16777216,0,0,0,1,0,0,0,0,0,0,0,0,0,0,0,0,1,0,0,0,0,0,0,14102,2116,117079.61,48.7962009281,1.98632241385,201.247,-0.3658,-0.2779,-0.0087,-0.475561979,-0.54227881,215.309224872,INS_SOLUTION_GOOD
1595838797284777164,48621,1595838797284483213,/novatel/imu,INSPVAA,USB3,0,12.5,FINESTEERING,2116,117079.62,16777216,0,0,0,1,0,0,0,0,0,0,0,0,0,0,0,0,1,0,0,0,0,0,0,14102,2116,117079.62,48.7962008948,1.98632237582,201.2469,-0.3733,-0.2838,-0.0082,-0.476289947,-0.54041446,215.310690277,INS_SOLUTION_GOOD
1595838797295184282,48622,1595838797294776963,/novatel/imu,INSPVAA,USB3,0,12.5,FINESTEERING,2116,117079.63,16777216,0,0,0,1,0,0,0,0,0,0,0,0,0,0,0,0,1,0,0,0,0,0,0,14102,2116,117079.63,48.7962008608,1.98632233722,201.2467,-0.3805,-0.2885,-0.0085,-0.476370865,-0.538788805,215.312189353,INS_SOLUTION_GOOD
1595838797304395866,48623,1595838797303989990,/novatel/imu,INSPVAA,USB3,0,12.5,FINESTEERING,2116,117079.64,16777216,0,0,0,1,0,0,0,0,0,0,0,0,0,0,0,0,1,0,0,0,0,0,0,14102,2116,117079.64,48.7962008261,1.9863222978,201.2466,-0.3884,-0.2943,-0.008,-0.476304046,-0.535976221,215.315920931,INS_SOLUTION_GOOD
1595838797324939898,48624,1595838797324421747,/novatel/imu,INSPVAA,USB3,0,12.5,FINESTEERING,2116,117079.65,16777216,0,0,0,1,0,0,0,0,0,0,0,0,0,0,0,0,1,0,0,0,0,0,0,14102,2116,117079.65,48.7962007907,1.98632225747,201.2465,-0.3962,-0.3003,-0.0083,-0.477597612,-0.532783694,215.31808095,INS_SOLUTION_GOOD
1595838797327814767,48625,1595838797326486930,/novatel/imu,INSPVAA,USB3,0,12.5,FINESTEERING,2116,117079.66,16777216,0,0,0,1,0,0,0,0,0,0,0,0,0,0,0,0,1,0,0,0,0,0,0,14102,2116,117079.66,48.7962007547,1.9863222167,201.2464,-0.403,-0.3052,-0.008,-0.477214282,-0.531295205,215.321704703,INS_SOLUTION_GOOD
1595838797334094089,48626,1595838797333856488,/novatel/imu,INSPVAA,USB3,0,12.5,FINESTEERING,2116,117079.67,16777216,0,0,0,1,0,0,0,0,0,0,0,0,0,0,0,0,1,0,0,0,0,0,0,14102,2116,117079.67,48.7962007181,1.98632217491,201.2463,-0.4103,-0.3115,-0.0074,-0.478304517,-0.528702695,215.322630848,INS_SOLUTION_GOOD
1595838797346446690,48627,1595838797346063448,/novatel/imu,INSPVAA,USB3,0,12.5,FINESTEERING,2116,117079.68,16777216,0,0,0,1,0,0,0,0,0,0,0,0,0,0,0,0,1,0,0,0,0,0,0,14102,2116,117079.68,48.7962006806,1.98632213265,201.2461,-0.4189,-0.3165,-0.0087,-0.475775172,-0.526577711,215.324454437,INS_SOLUTION_GOOD
1595838797363370395,48628,1595838797357643204,/novatel/imu,INSPVAA,USB3,0,12.5,FINESTEERING,2116,117079.69,16777216,0,0,0,1,0,0,0,0,0,0,0,0,0,0,0,0,1,0,0,0,0,0,0,14102,2116,117079.69,48.7962006428,1.98632208942,201.246,-0.4253,-0.3224,-0.008,-0.477015006,-0.526027665,215.328116393,INS_SOLUTION_GOOD
1595838797372052105,48629,1595838797371666921,/novatel/imu,INSPVAA,USB3,0,12.5,FINESTEERING,2116,117079.7,16777216,0,0,0,1,0,0,0,0,0,0,0,0,0,0,0,0,1,0,0,0,0,0,0,14102,2116,117079.7,48.7962006041,1.98632204526,201.2459,-0.4329,-0.3291,-0.0085,-0.477181251,-0.524023278,215.329943917,INS_SOLUTION_GOOD
1595838797377238611,48630,1595838797375756617,/novatel/imu,INSPVAA,USB3,0,12.5,FINESTEERING,2116,117079.71,16777216,0,0,0,1,0,0,0,0,0,0,0,0,0,0,0,0,1,0,0,0,0,0,0,14102,2116,117079.71,48.7962005647,1.98632200012,201.2458,-0.4406,-0.3361,-0.0083,-0.47887498,-0.520803711,215.331465265,INS_SOLUTION_GOOD
1595838797385382376,48631,1595838797385018627,/novatel/imu,INSPVAA,USB3,0,12.5,FINESTEERING,2116,117079.72,16777216,0,0,0,1,0,0,0,0,0,0,0,0,0,0,0,0,1,0,0,0,0,0,0,14102,2116,117079.72,48.7962005246,1.98632195428,201.2456,-0.4487,-0.342,-0.0079,-0.478708703,-0.517435924,215.335842996,INS_SOLUTION_GOOD
1595838797397238553,48632,1595838797396704550,/novatel/imu,INSPVAA,USB3,0,12.5,FINESTEERING,2116,117079.73,16777216,0,0,0,1,0,0,0,0,0,0,0,0,0,0,0,0,1,0,0,0,0,0,0,14102,2116,117079.73,48.7962004839,1.98632190754,201.2455,-0.4562,-0.3486,-0.008,-0.479913727,-0.51496196,215.338112297,INS_SOLUTION_GOOD
1595838797405651529,48633,1595838797405222718,/novatel/imu,INSPVAA,USB3,0,12.5,FINESTEERING,2116,117079.74,16777216,0,0,0,1,0,0,0,0,0,0,0,0,0,0,0,0,1,0,0,0,0,0,0,14102,2116,117079.74,48.7962004425,1.98632185999,201.2454,-0.4636,-0.355,-0.0084,-0.480834165,-0.513645563,215.340338672,INS_SOLUTION_GOOD
1595838797425513934,48634,1595838797423076174,/novatel/imu,INSPVAA,USB3,0,12.5,FINESTEERING,2116,117079.75,16777216,0,0,0,1,0,0,0,0,0,0,0,0,0,0,0,0,1,0,0,0,0,0,0,14102,2116,117079.75,48.7962004003,1.98632181151,201.2453,-0.4724,-0.3615,-0.0082,-0.481529571,-0.510450776,215.341187968,INS_SOLUTION_GOOD
1595838797428126934,48635,1595838797427724023,/novatel/imu,INSPVAA,USB3,0,12.5,FINESTEERING,2116,117079.76,16777216,0,0,0,1,0,0,0,0,0,0,0,0,0,0,0,0,1,0,0,0,0,0,0,14102,2116,117079.76,48.7962003575,1.98632176228,201.2451,-0.4796,-0.3678,-0.0084,-0.482133128,-0.510095217,215.346752224,INS_SOLUTION_GOOD
1595838797435185213,48636,1595838797434874898,/novatel/imu,INSPVAA,USB3,0,12.5,FINESTEERING,2116,117079.77,16777216,0,0,0,1,0,0,0,0,0,0,0,0,0,0,0,0,1,0,0,0,0,0,0,14102,2116,117079.77,48.7962003138,1.986321712,201.245,-0.4883,-0.3742,-0.0089,-0.483340936,-0.506132453,215.348390517,INS_SOLUTION_GOOD
1595838797447538850,48637,1595838797446627827,/novatel/imu,INSPVAA,USB3,0,12.5,FINESTEERING,2116,117079.78,16777216,0,0,0,1,0,0,0,0,0,0,0,0,0,0,0,0,1,0,0,0,0,0,0,14102,2116,117079.78,48.7962002694,1.98632166082,201.2449,-0.4967,-0.381,-0.0085,-0.484515389,-0.502412123,215.349270211,INS_SOLUTION_GOOD
1595838797455007052,48638,1595838797454638442,/novatel/imu,INSPVAA,USB3,0,12.5,FINESTEERING,2116,117079.79,16777216,0,0,0,1,0,0,0,0,0,0,0,0,0,0,0,0,1,0,0,0,0,0,0,14102,2116,117079.79,48.7962002243,1.98632160905,201.2447,-0.5051,-0.3865,-0.0094,-0.48439216,-0.50047592,215.35203392,INS_SOLUTION_GOOD
1595838797475873162,48639,1595838797472903106,/novatel/imu,INSPVAA,USB3,0,12.5,FINESTEERING,2116,117079.8,16777216,0,0,0,1,0,0,0,0,0,0,0,0,0,0,0,0,1,0,0,0,0,0,0,14102,2116,117079.8,48.7962001786,1.98632155645,201.2446,-0.5126,-0.3923,-0.0091,-0.484931986,-0.499714945,215.355677114,INS_SOLUTION_GOOD
1595838797475966259,48640,1595838797475553209,/novatel/imu,INSPVAA,USB3,0,12.5,FINESTEERING,2116,117079.81,16777216,0,0,0,1,0,0,0,0,0,0,0,0,0,0,0,0,1,0,0,0,0,0,0,14102,2116,117079.81,48.7962001318,1.98632150274,201.2445,-0.5225,-0.3994,-0.0102,-0.485085084,-0.495059223,215.357033618,INS_SOLUTION_GOOD
1595838797485023021,48641,1595838797484760913,/novatel/imu,INSPVAA,USB3,0,12.5,FINESTEERING,2116,117079.82,16777216,0,0,0,1,0,0,0,0,0,0,0,0,0,0,0,0,1,0,0,0,0,0,0,14102,2116,117079.82,48.7962000844,1.98632144848,201.2443,-0.531,-0.4052,-0.0104,-0.484155764,-0.493687926,215.36006079,INS_SOLUTION_GOOD
1595838797496261673,48642,1595838797495744183,/novatel/imu,INSPVAA,USB3,0,12.5,FINESTEERING,2116,117079.83,16777216,0,0,0,1,0,0,0,0,0,0,0,0,0,0,0,0,1,0,0,0,0,0,0,14102,2116,117079.83,48.796200036,1.98632139305,201.2442,-0.5407,-0.4124,-0.0098,-0.483298841,-0.489768992,215.362591865,INS_SOLUTION_GOOD
1595838797504056236,48643,1595838797503781036,/novatel/imu,INSPVAA,USB3,0,12.5,FINESTEERING,2116,117079.84,16777216,0,0,0,1,0,0,0,0,0,0,0,0,0,0,0,0,1,0,0,0,0,0,0,14102,2116,117079.84,48.796199987,1.98632133669,201.244,-0.5495,-0.4193,-0.0106,-0.484605029,-0.487542534,215.366601485,INS_SOLUTION_GOOD
1595838797528702738,48644,1595838797528136884,/novatel/imu,INSPVAA,USB3,0,12.5,FINESTEERING,2116,117079.85,16777216,0,0,0,1,0,0,0,0,0,0,0,0,0,0,0,0,1,0,0,0,0,0,0,14102,2116,117079.85,48.7961999371,1.98632127947,201.2439,-0.5587,-0.4259,-0.0103,-0.484482315,-0.484020861,215.368556272,INS_SOLUTION_GOOD
1595838797528728802,48645,1595838797528136884,/novatel/imu,INSPVAA,USB3,0,12.5,FINESTEERING,2116,117079.86,16777216,0,0,0,1,0,0,0,0,0,0,0,0,0,0,0,0,1,0,0,0,0,0,0,14102,2116,117079.86,48.7961998864,1.98632122114,201.2437,-0.5679,-0.4332,-0.0107,-0.487319862,-0.48093217,215.371635356,INS_SOLUTION_GOOD
1595838797535238810,48646,1595838797534830814,/novatel/imu,INSPVAA,USB3,0,12.5,FINESTEERING,2116,117079.87,16777216,0,0,0,1,0,0,0,0,0,0,0,0,0,0,0,0,1,0,0,0,0,0,0,14102,2116,117079.87,48.7961998349,1.98632116196,201.2436,-0.5775,-0.4403,-0.0106,-0.489635679,-0.478318899,215.375649034,INS_SOLUTION_GOOD
1595838797545120859,48647,1595838797544795671,/novatel/imu,INSPVAA,USB3,0,12.5,FINESTEERING,2116,117079.88,16777216,0,0,0,1,0,0,0,0,0,0,0,0,0,0,0,0,1,0,0,0,0,0,0,14102,2116,117079.88,48.7961997826,1.98632110204,201.2435,-0.5861,-0.4463,-0.0106,-0.491204818,-0.477026594,215.378052608,INS_SOLUTION_GOOD
1595838797558291067,48648,1595838797557586420,/novatel/imu,INSPVAA,USB3,0,12.5,FINESTEERING,2116,117079.89,16777216,0,0,0,1,0,0,0,0,0,0,0,0,0,0,0,0,1,0,0,0,0,0,0,14102,2116,117079.89,48.7961997293,1.98632104111,201.2433,-0.5958,-0.4529,-0.0116,-0.492467469,-0.473338708,215.381155649,INS_SOLUTION_GOOD
1595838797571954256,48649,1595838797571511392,/novatel/imu,INSPVAA,USB3,0,12.5,FINESTEERING,2116,117079.9,16777216,0,0,0,1,0,0,0,0,0,0,0,0,0,0,0,0,1,0,0,0,0,0,0,14102,2116,117079.9,48.7961996751,1.98632097915,201.2431,-0.6056,-0.4604,-0.0112,-0.493738879,-0.468905383,215.384548741,INS_SOLUTION_GOOD
1595838797575480274,48650,1595838797574855934,/novatel/imu,INSPVAA,USB3,0,12.5,FINESTEERING,2116,117079.91,16777216,0,0,0,1,0,0,0,0,0,0,0,0,0,0,0,0,1,0,0,0,0,0,0,14102,2116,117079.91,48.7961996201,1.98632091618,201.243,-0.6155,-0.4681,-0.0114,-0.495657255,-0.465307275,215.388676189,INS_SOLUTION_GOOD
