%time,field.header.seq,field.header.stamp,field.header.frame_id,field.steering_wheel_angle,field.steering_wheel_angle_cmd,field.steering_wheel_torque,field.speed,field.enabled,field.override,field.timeout,field.fault_wdc,field.fault_bus1,field.fault_bus2,field.fault_calibration,field.fault_power
1595838795662035734,48456,1595838795661797957,,-0.312413930893,0.0,0.0625,0.0,0,0,1,0,0,0,0,0
1595838795671962786,48457,1595838795671687801,,-0.312413930893,0.0,0.0625,0.0,0,0,1,0,0,0,0,0
1595838795682043467,48458,1595838795681806945,,-0.312413930893,0.0,0.0625,0.0,0,0,1,0,0,0,0,0
1595838795693343668,48459,1595838795691653456,,-0.312413930893,0.0,0.0625,0.0,0,0,1,0,0,0,0,0
1595838795702379894,48460,1595838795701841387,,-0.312413930893,0.0,0.0625,0.0,0,0,1,0,0,0,0,0
1595838795717140634,48461,1595838795716117677,,-0.312413930893,0.0,0.0625,0.0,0,0,1,0,0,0,0,0
1595838795724777498,48462,1595838795724194873,,-0.312413930893,0.0,0.0625,0.0,0,0,1,0,0,0,0,0
1595838795731924831,48463,1595838795731613018,,-0.312413930893,0.0,0.0625,0.0,0,0,1,0,0,0,0,0
1595838795742141603,48464,1595838795741809819,,-0.312413930893,0.0,0.0625,0.0,0,0,1,0,0,0,0,0
1595838795751980750,48465,1595838795751588480,,-0.312413930893,0.0,0.0625,0.0,0,0,1,0,0,0,0,0
1595838795764792862,48466,1595838795764169852,,-0.312413930893,0.0,0.0625,0.0,0,0,1,0,0,0,0,0
1595838795776870979,48467,1595838795776144300,,-0.312413930893,0.0,0.0625,0.0,0,0,1,0,0,0,0,0
1595838795782203666,48468,1595838795781861332,,-0.312413930893,0.0,0.0625,0.0,0,0,1,0,0,0,0,0
1595838795792034471,48469,1595838795791733577,,-0.312413930893,0.0,0.0625,0.0,0,0,1,0,0,0,0,0
1595838795802574869,48470,1595838795801895570,,-0.312413930893,0.0,0.0625,0.0,0,0,1,0,0,0,0,0
1595838795817020934,48471,1595838795816011969,,-0.312413930893,0.0,0.0625,0.0,0,0,1,0,0,0,0,0
1595838795824696231,48472,1595838795821987338,,-0.312413930893,0.0,0.0625,0.0,0,0,1,0,0,0,0,0
1595838795835281300,48473,1595838795832216981,,-0.312413930893,0.0,0.0625,0.0,0,0,1,0,0,0,0,0
1595838795842647153,48474,1595838795842259374,,-0.312413930893,0.0,0.0625,0.0,0,0,1,0,0,0,0,0
1595838795855770203,48475,1595838795853004092,,-0.312413930893,0.0,0.0625,0.0,0,0,1,0,0,0,0,0
1595838795862575530,48476,1595838795862170283,,-0.312413930893,0.0,0.0625,0.0,0,0,1,0,0,0,0,0
1595838795872825529,48477,1595838795871659457,,-0.312413930893,0.0,0.0625,0.0,0,0,1,0,0,0,0,0
1595838795882431484,48478,1595838795881904498,,-0.312413930893,0.0,0.0625,0.0,0,0,1,0,0,0,0,0
1595838795892367120,48479,1595838795891705814,,-0.312413930893,0.0,0.0625,0.0,0,0,1,0,0,0,0,0
1595838795904228705,48480,1595838795903054443,,-0.312413930893,0.0,0.0625,0.0,0,0,1,0,0,0,0,0
1595838795912297895,48481,1595838795911616965,,-0.312413930893,0.0,0.0625,0.0,0,0,1,0,0,0,0,0
1595838795922564939,48482,1595838795921898572,,-0.312413930893,0.0,0.0625,0.0,0,0,1,0,0,0,0,0
1595838795931973636,48483,1595838795931678437,,-0.312413930893,0.0,0.0625,0.0,0,0,1,0,0,0,0,0
1595838795942895382,48484,1595838795942189479,,-0.312413930893,0.0,0.0625,0.0,0,0,1,0,0,0,0,0
1595838795952503320,48485,1595838795951949230,,-0.312413930893,0.0,0.0625,0.0,0,0,1,0,0,0,0,0
1595838795962690447,48486,1595838795961975616,,-0.312413930893,0.0,0.0625,0.0,0,0,1,0,0,0,0,0
1595838795973885352,48487,1595838795971614281,,-0.312413930893,0.0,0.0625,0.0,0,0,1,0,0,0,0,0
1595838795982455189,48488,1595838795981899203,,-0.312413930893,0.0,0.0625,0.0,0,0,1,0,0,0,0,0
1595838795992239136,48489,1595838795991900930,,-0.312413930893,0.0,0.0625,0.0,0,0,1,0,0,0,0,0
1595838796002156643,48490,1595838796001853909,,-0.312413930893,0.0,0.0625,0.0,0,0,1,0,0,0,0,0
1595838796012352524,48491,1595838796012008844,,-0.312413930893,0.0,0.0625,0.0,0,0,1,0,0,0,0,0
1595838796022776423,48492,1595838796022326026,,-0.312413930893,0.0,0.0625,0.0,0,0,1,0,0,0,0,0
1595838796032126105,48493,1595838796031670171,,-0.312413930893,0.0,0.0625,0.0,0,0,1,0,0,0,0,0
1595838796042176032,48494,1595838796041835681,,-0.312413930893,0.0,0.0625,0.0,0,0,1,0,0,0,0,0
1595838796051890066,48495,1595838796051587613,,-0.312413930893,0.0,0.0625,0.0,0,0,1,0,0,0,0,0
1595838796062241588,48496,1595838796062023057,,-0.312413930893,0.0,0.0625,0.0,0,0,1,0,0,0,0,0
1595838796071986588,48497,1595838796071606655,,-0.312413930893,0.0,0.0625,0.0,0,0,1,0,0,0,0,0
1595838796082286604,48498,1595838796081853470,,-0.312413930893,0.0,0.0625,0.0,0,0,1,0,0,0,0,0
1595838796092015991,48499,1595838796091613779,,-0.312413930893,0.0,0.0625,0.0,0,0,1,0,0,0,0,0
1595838796102324936,48500,1595838796101860510,,-0.312413930893,0.0,0.0625,0.0,0,0,1,0,0,0,0,0
1595838796112179958,48501,1595838796111826604,,-0.312413930893,0.0,0.0625,0.0,0,0,1,0,0,0,0,0
1595838796122341718,48502,1595838796121851379,,-0.312413930893,0.0,0.0625,0.0,0,0,1,0,0,0,0,0
1595838796132040101,48503,1595838796131618948,,-0.312413930893,0.0,0.0625,0.0,0,0,1,0,0,0,0,0
1595838796142565228,48504,1595838796141861953,,-0.312413930893,0.0,0.0625,0.0,0,0,1,0,0,0,0,0
1595838796152949354,48505,1595838796152414591,,-0.312413930893,0.0,0.0625,0.0,0,0,1,0,0,0,0,0
1595838796162686917,48506,1595838796162288077,,-0.312413930893,0.0,0.0625,0.0,0,0,1,0,0,0,0,0
1595838796174845062,48507,1595838796174192664,,-0.312413930893,0.0,0.0625,0.0,0,0,1,0,0,0,0,0
1595838796191171832,48508,1595838796182833176,,-0.312413930893,0.0,0.0625,0.0,0,0,1,0,0,0,0,0
1595838796195588822,48509,1595838796194771761,,-0.312413930893,0.0,0.0625,0.0,0,0,1,0,0,0,0,0
1595838796203332322,48510,1595838796202481537,,-0.312413930893,0.0,0.0625,0.0,0,0,1,0,0,0,0,0
1595838796220623058,48511,1595838796211856798,,-0.312413930893,0.0,0.0625,0.0,0,0,1,0,0,0,0,0
1595838796222580503,48512,1595838796221843126,,-0.312413930893,0.0,0.0625,0.0,0,0,1,0,0,0,0,0
1595838796236940798,48513,1595838796236492100,,-0.312413930893,0.0,0.0625,0.0,0,0,1,0,0,0,0,0
1595838796242166662,48514,1595838796241821535,,-0.312413930893,0.0,0.0625,0.0,0,0,1,0,0,0,0,0
1595838796254941776,48515,1595838796251590432,,-0.312413930893,0.0,0.0625,0.0,0,0,1,0,0,0,0,0
1595838796262925103,48516,1595838796261863223,,-0.312413930893,0.0,0.0625,0.0,0,0,1,0,0,0,0,0
1595838796272843735,48517,1595838796272315918,,-0.312413930893,0.0,0.0625,0.0,0,0,1,0,0,0,0,0
1595838796284563605,48518,1595838796284251239,,-0.312413930893,0.0,0.125,0.0,0,0,1,0,0,0,0,0
1595838796292522125,48519,1595838796291810270,,-0.312413930893,0.0,0.125,0.0,0,0,1,0,0,0,0,0
1595838796302299905,48520,1595838796301923100,,-0.312413930893,0.0,0.125,0.0,0,0,1,0,0,0,0,0
1595838796313916439,48521,1595838796312147524,,-0.312413930893,0.0,0.125,0.0,0,0,1,0,0,0,0,0
1595838796322406786,48522,1595838796322031656,,-0.312413930893,0.0,0.125,0.0,0,0,1,0,0,0,0,0
1595838796335459862,48523,1595838796333161205,,-0.312413930893,0.0,0.125,0.0,0,0,1,0,0,0,0,0
1595838796342291796,48524,1595838796341867025,,-0.312413930893,0.0,0.125,0.0,0,0,1,0,0,0,0,0
1595838796351982371,48525,1595838796351644376,,-0.312413930893,0.0,0.125,0.0,0,0,1,0,0,0,0,0
1595838796362609561,48526,1595838796361893989,,-0.312413930893,0.0,0.125,0.0,0,0,1,0,0,0,0,0
1595838796371875585,48527,1595838796371595207,,-0.312413930893,0.0,0.125,0.0,0,0,1,0,0,0,0,0
1595838796382159815,48528,1595838796381852761,,-0.312413930893,0.0,0.125,0.0,0,0,1,0,0,0,0,0
1595838796398441881,48529,1595838796391654688,,-0.312413930893,0.0,0.125,0.0,0,0,1,0,0,0,0,0
1595838796404452291,48530,1595838796404012141,,-0.312413930893,0.0,0.125,0.0,0,0,1,0,0,0,0,0
1595838796412147615,48531,1595838796411869238,,-0.312413930893,0.0,0.125,0.0,0,0,1,0,0,0,0,0
1595838796422607039,48532,1595838796421848457,,-0.312413930893,0.0,0.125,0.0,0,0,1,0,0,0,0,0
1595838796431869337,48533,1595838796431615097,,-0.312413930893,0.0,0.125,0.0,0,0,1,0,0,0,0,0
1595838796442236834,48534,1595838796441873257,,-0.312413930893,0.0,0.125,0.0,0,0,1,0,0,0,0,0
1595838796451877172,48535,1595838796451612995,,-0.312413930893,0.0,0.125,0.0,0,0,1,0,0,0,0,0
1595838796462123228,48536,1595838796461843561,,-0.312413930893,0.0,0.125,0.0,0,0,1,0,0,0,0,0
1595838796473457452,48537,1595838796471636607,,-0.312413930893,0.0,0.125,0.0,0,0,1,0,0,0,0,0
1595838796482311055,48538,1595838796481829306,,-0.312413930893,0.0,0.0625,0.0,0,0,1,0,0,0,0,0
1595838796492221327,48539,1595838796491768782,,-0.312413930893,0.0,0.0625,0.0,0,0,1,0,0,0,0,0
1595838796502127820,48540,1595838796501842854,,-0.312413930893,0.0,0.125,0.0,0,0,1,0,0,0,0,0
1595838796511966651,48541,1595838796511629337,,-0.312413930893,0.0,0.125,0.0,0,0,1,0,0,0,0,0
1595838796522173469,48542,1595838796521847355,,-0.312413930893,0.0,0.125,0.0,0,0,1,0,0,0,0,0
1595838796531943157,48543,1595838796531645676,,-0.312413930893,0.0,0.125,0.0,0,0,1,0,0,0,0,0
1595838796542918732,48544,1595838796541883814,,-0.312413930893,0.0,0.125,0.0,0,0,1,0,0,0,0,0
1595838796551975913,48545,1595838796551594478,,-0.312413930893,0.0,0.125,0.0,0,0,1,0,0,0,0,0
1595838796562197722,48546,1595838796561862214,,-0.312413930893,0.0,0.125,0.0,0,0,1,0,0,0,0,0
1595838796573628565,48547,1595838796572419103,,-0.312413930893,0.0,0.125,0.0,0,0,1,0,0,0,0,0
1595838796582226521,48548,1595838796581849191,,-0.312413930893,0.0,0.125,0.0,0,0,1,0,0,0,0,0
1595838796592036827,48549,1595838796591624478,,-0.312413930893,0.0,0.125,0.0,0,0,1,0,0,0,0,0
1595838796602363991,48550,1595838796601845245,,-0.312413930893,0.0,0.125,0.0,0,0,1,0,0,0,0,0
1595838796611923788,48551,1595838796611603831,,-0.312413930893,0.0,0.125,0.0,0,0,1,0,0,0,0,0
1595838796622543073,48552,1595838796621830127,,-0.312413930893,0.0,0.125,0.0,0,0,1,0,0,0,0,0
1595838796632178164,48553,1595838796631817105,,-0.312413930893,0.0,0.125,0.0,0,0,1,0,0,0,0,0
1595838796642432785,48554,1595838796641882996,,-0.312413930893,0.0,0.125,0.0,0,0,1,0,0,0,0,0
1595838796652824592,48555,1595838796651685014,,-0.312413930893,0.0,0.125,0.0,0,0,1,0,0,0,0,0
1595838796662454714,48556,1595838796661870486,,-0.312413930893,0.0,0.125,0.0,0,0,1,0,0,0,0,0
1595838796673154495,48557,1595838796671760575,,-0.312413930893,0.0,0.125,0.0,0,0,1,0,0,0,0,0
1595838796682314274,48558,1595838796681882529,,-0.312413930893,0.0,0.125,0.0,0,0,1,0,0,0,0,0
1595838796691843327,48559,1595838796691640547,,-0.312413930893,0.0,0.125,0.0,0,0,1,0,0,0,0,0
1595838796702245546,48560,1595838796701865835,,-0.312413930893,0.0,0.125,0.0,0,0,1,0,0,0,0,0
1595838796714980954,48561,1595838796711653018,,-0.312413930893,0.0,0.125,0.0,0,0,1,0,0,0,0,0
1595838796722071249,48562,1595838796721842679,,-0.312413930893,0.0,0.125,0.0,0,0,1,0,0,0,0,0
1595838796732143712,48563,1595838796731663565,,-0.312413930893,0.0,0.125,0.0,0,0,1,0,0,0,0,0
1595838796743759330,48564,1595838796741853072,,-0.312413930893,0.0,0.125,0.0,0,0,1,0,0,0,0,0
1595838796753806773,48565,1595838796751657257,,-0.312413930893,0.0,0.125,0.0,0,0,1,0,0,0,0,0
1595838796762161459,48566,1595838796761826531,,-0.312413930893,0.0,0.125,0.0,0,0,1,0,0,0,0,0
1595838796772897728,48567,1595838796771621086,,-0.312413930893,0.0,0.125,0.0,0,0,1,0,0,0,0,0
1595838796782214573,48568,1595838796781832478,,-0.312413930893,0.0,0.125,0.0,0,0,1,0,0,0,0,0
1595838796792428729,48569,1595838796791998207,,-0.312413930893,0.0,0.125,0.0,0,0,1,0,0,0,0,0
1595838796802458413,48570,1595838796801872826,,-0.312413930893,0.0,0.0625,0.0,0,0,1,0,0,0,0,0
1595838796812207108,48571,1595838796811880140,,-0.312413930893,0.0,0.0625,0.0,0,0,1,0,0,0,0,0
1595838796822190383,48572,1595838796821860615,,-0.312413930893,0.0,0.0625,0.0,0,0,1,0,0,0,0,0
1595838796832155013,48573,1595838796831853021,,-0.312413930893,0.0,0.0625,0.0,0,0,1,0,0,0,0,0
1595838796842337250,48574,1595838796841858840,,-0.312413930893,0.0,0.0625,0.0,0,0,1,0,0,0,0,0
1595838796853057054,48575,1595838796851771106,,-0.312413930893,0.0,0.0625,0.0,0,0,1,0,0,0,0,0
1595838796865161219,48576,1595838796861855893,,-0.312413930893,0.0,0.0625,0.0,0,0,1,0,0,0,0,0
1595838796871897524,48577,1595838796871598646,,-0.312413930893,0.0,0.0625,0.0,0,0,1,0,0,0,0,0
1595838796882114243,48578,1595838796881847981,,-0.312413930893,0.0,0.0625,0.0,0,0,1,0,0,0,0,0
1595838796892519131,48579,1595838796891864672,,-0.312413930893,0.0,0.0625,0.0,0,0,1,0,0,0,0,0
1595838796902362789,48580,1595838796901880482,,-0.312413930893,0.0,0.0625,0.0,0,0,1,0,0,0,0,0
1595838796912226400,48581,1595838796911884023,,-0.312413930893,0.0,0.0625,0.0,0,0,1,0,0,0,0,0
1595838796924496333,48582,1595838796921864627,,-0.312413930893,0.0,0.0625,0.0,0,0,1,0,0,0,0,0
1595838796932239204,48583,1595838796931753525,,-0.312413930893,0.0,0.0625,0.0,0,0,1,0,0,0,0,0
1595838796945152866,48584,1595838796944593470,,-0.312413930893,0.0,0.0625,0.0,0,0,1,0,0,0,0,0
1595838796954144766,48585,1595838796951814661,,-0.312413930893,0.0,0.0625,0.0,0,0,1,0,0,0,0,0
1595838796962108510,48586,1595838796961844779,,-0.312413930893,0.0,0.0625,0.0,0,0,1,0,0,0,0,0
1595838796972208669,48587,1595838796971632016,,-0.312413930893,0.0,0.0625,0.0,0,0,1,0,0,0,0,0
1595838796982147706,48588,1595838796981873061,,-0.312413930893,0.0,0.125,0.0,0,0,1,0,0,0,0,0
1595838796993153436,48589,1595838796992655077,,-0.312413930893,0.0,0.125,0.0,0,0,1,0,0,0,0,0
1595838797004093540,48590,1595838797001893017,,-0.312413930893,0.0,0.125,0.0,0,0,1,0,0,0,0,0
1595838797012477409,48591,1595838797011696333,,-0.312413930893,0.0,0.125,0.0,0,0,1,0,0,0,0,0
1595838797022309630,48592,1595838797021856289,,-0.310668617487,0.0,0.1875,0.0,0,0,1,0,0,0,0,0
1595838797031921983,48593,1595838797031621269,,-0.310668617487,0.0,0.1875,0.0,0,0,1,0,0,0,0,0
1595838797042895094,48594,1595838797041928444,,-0.310668617487,0.0,0.1875,0.0,0,0,1,0,0,0,0,0
1595838797053900847,48595,1595838797051782641,,-0.310668617487,0.0,0.1875,0.0,0,0,1,0,0,0,0,0
1595838797063063165,48596,1595838797062744059,,-0.310668617487,0.0,0.25,0.0,0,0,1,0,0,0,0,0
1595838797073005163,48597,1595838797072444207,,-0.310668617487,0.0,0.25,0.0,0,0,1,0,0,0,0,0
1595838797082149305,48598,1595838797081853880,,-0.310668617487,0.0,0.25,0.0,0,0,1,0,0,0,0,0
1595838797092158169,48599,1595838797091671367,,-0.310668617487,0.0,0.25,0.0,0,0,1,0,0,0,0,0
1595838797102480452,48600,1595838797101869498,,-0.310668617487,0.0,0.1875,0.0,0,0,1,0,0,0,0,0
1595838797112189142,48601,1595838797111803955,,-0.310668617487,0.0,0.1875,0.0,0,0,1,0,0,0,0,0
1595838797122516419,48602,1595838797121882532,,-0.310668617487,0.0,0.125,0.0,0,0,1,0,0,0,0,0
1595838797132082959,48603,1595838797131691027,,-0.310668617487,0.0,0.125,0.0,0,0,1,0,0,0,0,0
1595838797142296422,48604,1595838797141865959,,-0.310668617487,0.0,0.125,0.0,0,0,1,0,0,0,0,0
1595838797152104421,48605,1595838797151618376,,-0.310668617487,0.0,0.125,0.0,0,0,1,0,0,0,0,0
1595838797166350234,48606,1595838797161871382,,-0.310668617487,0.0,0.1875,0.0,0,0,1,0,0,0,0,0
1595838797176556767,48607,1595838797172046748,,-0.310668617487,0.0,0.1875,0.0,0,0,1,0,0,0,0,0
1595838797182278275,48608,1595838797181884578,,-0.308923274279,0.0,0.25,0.0,0,0,1,0,0,0,0,0
1595838797192001120,48609,1595838797191647424,,-0.308923274279,0.0,0.25,0.0,0,0,1,0,0,0,0,0
1595838797202902418,48610,1595838797201911986,,-0.307177960873,0.0,0.3125,0.0,0,0,1,0,0,0,0,0
1595838797212206006,48611,1595838797211645100,,-0.307177960873,0.0,0.3125,0.0,0,0,1,0,0,0,0,0
1595838797222149588,48612,1595838797221871425,,-0.305432617664,0.0,0.375,0.0,0,0,1,0,0,0,0,0
1595838797231987191,48613,1595838797231636065,,-0.305432617664,0.0,0.375,0.222222223878,0,0,1,0,0,0,0,0
1595838797242093926,48614,1595838797241854078,,-0.303687274456,0.0,0.375,0.241666674614,0,0,1,0,0,0,0,0
1595838797252725990,48615,1595838797251700711,,-0.30194196105,0.0,0.375,0.255555570126,0,0,1,0,0,0,0,0
1595838797262232330,48616,1595838797261878363,,-0.300196617842,0.0,0.375,0.269444465637,0,0,1,0,0,0,0,0
1595838797271893006,48617,1595838797271605356,,-0.298451304436,0.0,0.375,0.283333331347,0,0,1,0,0,0,0,0
1595838797284394975,48618,1595838797281884088,,-0.298451304436,0.0,0.375,0.300000011921,0,0,1,0,0,0,0,0
1595838797292411488,48619,1595838797291639342,,-0.296705961227,0.0,0.375,0.313888907433,0,0,1,0,0,0,0,0
1595838797302349359,48620,1595838797301854130,,-0.294960647821,0.0,0.3125,0.325000017881,0,0,1,0,0,0,0,0
1595838797311974071,48621,1595838797311637311,,-0.294960647821,0.0,0.3125,0.333333343267,0,0,1,0,0,0,0,0
1595838797322349293,48622,1595838797321877191,,-0.293215304613,0.0,0.375,0.344444453716,0,0,1,0,0,0,0,0
1595838797331935488,48623,1595838797331631905,,-0.293215304613,0.0,0.375,0.355555564165,0,0,1,0,0,0,0,0
1595838797343015495,48624,1595838797342032695,,-0.293215304613,0.0,0.375,0.366666674614,0,0,1,0,0,0,0,0
1595838797352629922,48625,1595838797351840332,,-0.291469991207,0.0,0.375,0.377777785063,0,0,1,0,0,0,0,0
1595838797363427042,48626,1595838797361877902,,-0.291469991207,0.0,0.375,0.388888895512,0,0,1,0,0,0,0,0
1595838797372390913,48627,1595838797371778184,,-0.289724647999,0.0,0.375,0.397222220898,0,0,1,0,0,0,0,0
1595838797382105569,48628,1595838797381876122,,-0.289724647999,0.0,0.375,0.408333331347,0,0,1,0,0,0,0,0
1595838797392718808,48629,1595838797391784423,,-0.287979334593,0.0,0.375,0.419444441795,0,0,1,0,0,0,0,0
1595838797402315672,48630,1595838797401929355,,-0.286233991385,0.0,0.375,0.430555552244,0,0,1,0,0,0,0,0
1595838797411989972,48631,1595838797411644613,,-0.286233991385,0.0,0.375,0.438888907433,0,0,1,0,0,0,0,0
1595838797422186464,48632,1595838797421853343,,-0.284488677979,0.0,0.4375,0.452777802944,0,0,1,0,0,0,0,0
1595838797431942768,48633,1595838797431633676,,-0.280998021364,0.0,0.4375,0.463888913393,0,0,1,0,0,0,0,0
1595838797442229946,48634,1595838797441922160,,-0.279252678156,0.0,0.5,0.475000023842,0,0,1,0,0,0,0,0
1595838797452258125,48635,1595838797451649686,,-0.277507334948,0.0,0.5,0.483333349228,0,0,1,0,0,0,0,0
1595838797466689886,48636,1595838797461916909,,-0.274016678333,0.0,0.5625,0.494444459677,0,0,1,0,0,0,0,0
1595838797474650372,48637,1595838797472149554,,-0.270526021719,0.0,0.5625,0.505555570126,0,0,1,0,0,0,0,0
1595838797482927088,48638,1595838797481854474,,-0.268780708313,0.0,0.6875,0.516666650772,0,0,1,0,0,0,0,0
1595838797492158363,48639,1595838797491793839,,-0.26354470849,0.0,0.6875,0.525000035763,0,0,1,0,0,0,0,0
1595838797502619217,48640,1595838797502185383,,-0.260054051876,0.0,0.75,0.536111116409,0,0,1,0,0,0,0,0
1595838797512855209,48641,1595838797511709875,,-0.254818081856,0.0,0.75,0.54722225666,0,0,1,0,0,0,0,0
1595838797522161732,48642,1595838797521877752,,-0.249582082033,0.0,0.8125,0.561111152172,0,0,1,0,0,0,0,0
1595838797532649688,48643,1595838797531801029,,-0.244346097112,0.0,0.8125,0.572222232819,0,0,1,0,0,0,0,0
1595838797542404378,48644,1595838797541868904,,-0.23911011219,0.0,0.875,0.58333337307,0,0,1,0,0,0,0,0
1595838797555857800,48645,1595838797552358527,,-0.233874112368,0.0,0.875,0.591666698456,0,0,1,0,0,0,0,0
1595838797562202516,48646,1595838797561890908,,-0.226892799139,0.0,0.9375,0.605555593967,0,0,1,0,0,0,0,0
1595838797573914450,48647,1595838797571843062,,-0.221656814218,0.0,0.9375,0.616666674614,0,0,1,0,0,0,0,0
1595838797582460740,48648,1595838797581878711,,-0.214675500989,0.0,0.9375,0.627777814865,0,0,1,0,0,0,0,0
1595838797595173538,48649,1595838797594822994,,-0.209439516068,0.0,0.9375,0.636111140251,0,0,1,0,0,0,0,0
1595838797602241359,48650,1595838797601873270,,-0.202458187938,0.0,1.0,0.650000035763,0,0,1,0,0,0,0,0
1595838797612125711,48651,1595838797611655509,,-0.195476874709,0.0,1.0,0.661111116409,0,0,1,0,0,0,0,0
1595838797622162077,48652,1595838797621886406,,-0.188495561481,0.0,1.0,0.675000011921,0,0,1,0,0,0,0,0
1595838797632330629,48653,1595838797631876780,,-0.183259576559,0.0,1.0,0.686111152172,0,0,1,0,0,0,0,0
1595838797655194233,48654,1595838797641962516,,-0.176278248429,0.0,1.0,0.699999988079,0,0,1,0,0,0,0,0
1595838797655214398,48655,1595838797651863024,,-0.171042263508,0.0,1.0,0.71111112833,0,0,1,0,0,0,0,0
1595838797663487648,48656,1595838797661843509,,-0.164060950279,0.0,1.0,0.725000023842,0,0,1,0,0,0,0,0
1595838797672972090,48657,1595838797671788397,,-0.157079637051,0.0,1.0,0.736111104488,0,0,1,0,0,0,0,0
1595838797684759913,48658,1595838797681857937,,-0.150098308921,0.0,1.0,0.75,0,0,1,0,0,0,0,0
1595838797692238265,48659,1595838797691640108,,-0.143116995692,0.0,1.0,0.761111140251,0,0,1,0,0,0,0,0
1595838797705123206,48660,1595838797701838812,,-0.137881010771,0.0,1.0,0.775000035763,0,0,1,0,0,0,0,0
1595838797712330856,48661,1595838797711648257,,-0.130899697542,0.0,1.0,0.788888931274,0,0,1,0,0,0,0,0
1595838797723142199,48662,1595838797721864139,,-0.123918376863,0.0,1.0,0.802777826786,0,0,1,0,0,0,0,0
1595838797732691952,48663,1595838797732510456,,-0.118682384491,0.0,1.0,0.813888907433,0,0,1,0,0,0,0,0
1595838797742146338,48664,1595838797741884197,,-0.11344639957,0.0,0.9375,0.827777802944,0,0,1,0,0,0,0,0
1595838797752840198,48665,1595838797751900864,,-0.106465086341,0.0,0.9375,0.841666698456,0,0,1,0,0,0,0,0
1595838797766208759,48666,1595838797761894077,,-0.101229093969,0.0,0.9375,0.858333349228,0,0,1,0,0,0,0,0
1595838797772210759,48667,1595838797771841867,,-0.0959931090474,0.0,0.9375,0.87222224474,0,0,1,0,0,0,0,0
1595838797782197008,48668,1595838797781878627,,-0.0907571166754,0.0,0.9375,0.886111140251,0,0,1,0,0,0,0,0
1595838797795079185,48669,1595838797794259264,,-0.0855211317539,0.0,0.9375,0.900000035763,0,0,1,0,0,0,0,0
1595838797804956697,48670,1595838797801870742,,-0.0802851468325,0.0,0.9375,0.916666686535,0,0,1,0,0,0,0,0
1595838797811932610,48671,1595838797811640664,,-0.0750491544604,0.0,0.9375,0.930555582047,0,0,1,0,0,0,0,0
1595838797822502837,48672,1595838797821898882,,-0.069813169539,0.0,0.9375,0.944444477558,0,0,1,0,0,0,0,0
1595838797832190473,48673,1595838797831732099,,-0.0628318488598,0.0,0.9375,0.95833337307,0,0,1,0,0,0,0,0
1595838797842280648,48674,1595838797841906314,,-0.0575958639383,0.0,0.9375,0.972222268581,0,0,1,0,0,0,0,0
1595838797851948570,48675,1595838797851669986,,-0.0523598790169,0.0,0.9375,0.986111164093,0,0,1,0,0,0,0,0
1595838797862700587,48676,1595838797862098489,,-0.0471238903701,0.0,0.875,1.00277781487,0,0,1,0,0,0,0,0
1595838797872431726,48677,1595838797872108030,,-0.0418879017234,0.0,0.875,1.01666665077,0,0,1,0,0,0,0,0
1595838797883981350,48678,1595838797881916442,,-0.0366519130766,0.0,0.875,1.03333330154,0,0,1,0,0,0,0,0
1595838797892290599,48679,1595838797891868118,,-0.0296705961227,0.0,0.875,1.04722225666,0,0,1,0,0,0,0,0
1595838797902203251,48680,1595838797901859363,,-0.0244346093386,0.0,0.8125,1.06388890743,0,0,1,0,0,0,0,0
1595838797914985052,48681,1595838797914436306,,-0.0191986225545,0.0,0.8125,1.07777786255,0,0,1,0,0,0,0,0
1595838797925117206,48682,1595838797921878965,,-0.0139626339078,0.0,0.75,1.09444451332,0,0,1,0,0,0,0,0
1595838797932024729,48683,1595838797931636250,,-0.0104719754308,0.0,0.75,1.10833334923,0,0,1,0,0,0,0,0
1595838797942208810,48684,1595838797941959922,,-0.00523598771542,0.0,0.6875,1.125,0,0,1,0,0,0,0,0
1595838797952036479,48685,1595838797951793853,,-0.00174532923847,0.0,0.6875,1.13888895512,0,0,1,0,0,0,0,0
1595838797963794083,48686,1595838797961855156,,0.0,0.0,0.6875,1.15833342075,0,0,1,0,0,0,0,0
1595838797972111202,48687,1595838797971747866,,0.00523598771542,0.0,0.6875,1.17500007153,0,0,1,0,0,0,0,0
1595838797982685674,48688,1595838797981895287,,0.0069813169539,0.0,0.625,1.19444441795,0,0,1,0,0,0,0,0
1595838797992095824,48689,1595838797991797828,,0.0122173046693,0.0,0.625,1.21111118793,0,0,1,0,0,0,0,0
1595838798002373903,48690,1595838798001859909,,0.0139626339078,0.0,0.625,1.23055553436,0,0,1,0,0,0,0,0
1595838798013381532,48691,1595838798011682123,,0.0174532923847,0.0,0.625,1.24722230434,0,0,1,0,0,0,0,0
1595838798022933912,48692,1595838798021867259,,0.0209439508617,0.0,0.625,1.26944446564,0,0,1,0,0,0,0,0
1595838798031948319,48693,1595838798031645325,,0.0244346093386,0.0,0.625,1.28888893127,0,0,1,0,0,0,0,0
1595838798042380770,48694,1595838798041886675,,0.0261799395084,0.0,0.625,1.30555558205,0,0,1,0,0,0,0,0
1595838798054948295,48695,1595838798052767297,,0.0296705961227,0.0,0.625,1.3166667223,0,0,1,0,0,0,0,0
1595838798063055343,48696,1595838798062609652,,0.0331612564623,0.0,0.5625,1.33611118793,0,0,1,0,0,0,0,0
1595838798073497672,48697,1595838798072431542,,0.0366519130766,0.0,0.5625,1.35000002384,0,0,1,0,0,0,0,0
1595838798086099432,48698,1595838798085770259,,0.0383972451091,0.0,0.5625,1.375,0,0,1,0,0,0,0,0
1595838798092059576,48699,1595838798091807865,,0.0418879017234,0.0,0.5625,1.39444446564,0,0,1,0,0,0,0,0
1595838798105436865,48700,1595838798104831017,,0.0453785583377,0.0,0.5,1.41666674614,0,0,1,0,0,0,0,0
1595838798114591533,48701,1595838798112172585,,0.0471238903701,0.0,0.5,1.43611109257,0,0,1,0,0,0,0,0
1595838798122457514,48702,1595838798122017327,,0.0506145469844,0.0,0.625,1.45833337307,0,0,1,0,0,0,0,0
1595838798134693251,48703,1595838798134109437,,0.054105207324,0.0,0.625,1.47500002384,0,0,1,0,0,0,0,0
1595838798142135007,48704,1595838798141882189,,0.0575958639383,0.0,0.5625,1.49722230434,0,0,1,0,0,0,0,0
1595838798152642581,48705,1595838798152054876,,0.0610865242779,0.0,0.5625,1.51388895512,0,0,1,0,0,0,0,0
1595838798162166578,48706,1595838798161907612,,0.0628318488598,0.0,0.625,1.53333342075,0,0,1,0,0,0,0,0
1595838798175845881,48707,1595838798174763509,,0.0663225129247,0.0,0.625,1.55000007153,0,0,1,0,0,0,0,0
1595838798182162192,48708,1595838798181963149,,0.069813169539,0.0,0.5625,1.57222223282,0,0,1,0,0,0,0,0
1595838798192789458,48709,1595838798192176048,,0.0733038261533,0.0,0.5625,1.58888888359,0,0,1,0,0,0,0,0
1595838798202788938,48710,1595838798202105959,,0.0750491544604,0.0,0.5625,1.61111116409,0,0,1,0,0,0,0,0
1595838798222749822,48711,1595838798222326202,,0.0785398185253,0.0,0.5625,1.62777781487,0,0,1,0,0,0,0,0
1595838798223319657,48712,1595838798222686215,,0.0802851468325,0.0,0.5625,1.65000009537,0,0,1,0,0,0,0,0
1595838798232187066,48713,1595838798231844586,,0.0837758034468,0.0,0.5625,1.66666674614,0,0,1,0,0,0,0,0
1595838798242349294,48714,1595838798242057171,,0.0872664600611,0.0,0.5625,1.68611109257,0,0,1,0,0,0,0,0
1595838798255532019,48715,1595838798254335270,,0.0907571166754,0.0,0.5625,1.70000004768,0,0,1,0,0,0,0,0
1595838798263198871,48716,1595838798262649241,,0.0959931090474,0.0,0.5,1.71666669846,0,0,1,0,0,0,0,0
1595838798273078659,48717,1595838798271959452,,0.0977384373546,0.0,0.5,1.73055565357,0,0,1,0,0,0,0,0
1595838798282444415,48718,1595838798281911894,,0.101229093969,0.0,0.5,1.75277781487,0,0,1,0,0,0,0,0
1595838798292167011,48719,1595838798291777317,,0.104719758034,0.0,0.5,1.7722222805,0,0,1,0,0,0,0,0
1595838798302633480,48720,1595838798302145612,,0.106465086341,0.0,0.5,1.7944444418,0,0,1,0,0,0,0,0
1595838798313901098,48721,1595838798313327170,,0.109955742955,0.0,0.5,1.81388890743,0,0,1,0,0,0,0,0
1595838798322208630,48722,1595838798321872148,,0.111701071262,0.0,0.5625,1.83611118793,0,0,1,0,0,0,0,0
1595838798332145927,48723,1595838798331684385,,0.115191727877,0.0,0.5625,1.85277783871,0,0,1,0,0,0,0,0
1595838798346122765,48724,1595838798345641610,,0.115191727877,0.0,0.5625,1.875,0,0,1,0,0,0,0,0
1595838798352297076,48725,1595838798351848887,,0.116937056184,0.0,0.5625,1.89166676998,0,0,1,0,0,0,0,0
1595838798362502675,48726,1595838798361886031,,0.118682384491,0.0,0.5625,1.91388893127,0,0,1,0,0,0,0,0
1595838798372156664,48727,1595838798371879165,,0.122173048556,0.0,0.5625,1.93055558205,0,0,1,0,0,0,0,0
1595838798382154476,48728,1595838798381895866,,0.123918376863,0.0,0.5625,1.95000004768,0,0,1,0,0,0,0,0
1595838798392032208,48729,1595838798391677530,,0.123918376863,0.0,0.5625,1.96944451332,0,0,1,0,0,0,0,0
1595838798402252372,48730,1595838798401867620,,0.12566369772,0.0,0.5625,1.98888897896,0,0,1,0,0,0,0,0
1595838798412223110,48731,1595838798411852639,,0.127409040928,0.0,0.5625,2.00277781487,0,0,1,0,0,0,0,0
1595838798422206643,48732,1595838798421897786,,0.127409040928,0.0,0.625,2.02500009537,0,0,1,0,0,0,0,0
1595838798432306164,48733,1595838798431915076,,0.129154369235,0.0,0.625,2.044444561,0,0,1,0,0,0,0,0
1595838798444431482,48734,1595838798443490800,,0.129154369235,0.0,0.625,2.06666660309,0,0,1,0,0,0,0,0
1595838798454074059,48735,1595838798453461617,,0.129154369235,0.0,0.625,2.08333349228,0,0,1,0,0,0,0,0
1595838798462157696,48736,1595838798461870441,,0.130899697542,0.0,0.6875,2.10833334923,0,0,1,0,0,0,0,0
1595838798472396539,48737,1595838798471866926,,0.130899697542,0.0,0.6875,2.12777781487,0,0,1,0,0,0,0,0
1595838798482441972,48738,1595838798481889500,,0.130899697542,0.0,0.75,2.15277791023,0,0,1,0,0,0,0,0
1595838798491939369,48739,1595838798491656299,,0.130899697542,0.0,0.75,2.17222237587,0,0,1,0,0,0,0,0
1595838798502094548,48740,1595838798501889811,,0.130899697542,0.0,0.6875,2.19166660309,0,0,1,0,0,0,0,0
1595838798512273321,48741,1595838798511701153,,0.130899697542,0.0,0.6875,2.20833349228,0,0,1,0,0,0,0,0
1595838798522101114,48742,1595838798521862631,,0.130899697542,0.0,0.6875,2.23055553436,0,0,1,0,0,0,0,0
1595838798531930635,48743,1595838798531641830,,0.132645025849,0.0,0.6875,2.25,0,0,1,0,0,0,0,0
1595838798542949929,48744,1595838798541894451,,0.132645025849,0.0,0.6875,2.2722222805,0,0,1,0,0,0,0,0
1595838798552412776,48745,1595838798551853022,,0.132645025849,0.0,0.6875,2.28888893127,0,0,1,0,0,0,0,0
1595838798562379717,48746,1595838798561955925,,0.132645025849,0.0,0.75,2.31388902664,0,0,1,0,0,0,0,0
1595838798571994870,48747,1595838798571680174,,0.132645025849,0.0,0.75,2.33333349228,0,0,1,0,0,0,0,0
1595838798583029064,48748,1595838798582343257,,0.132645025849,0.0,0.75,2.35555553436,0,0,1,0,0,0,0,0
1595838798597650240,48749,1595838798596156645,,0.132645025849,0.0,0.75,2.37222218513,0,0,1,0,0,0,0,0
1595838798602277515,48750,1595838798601990351,,0.132645025849,0.0,0.625,2.39166665077,0,0,1,0,0,0,0,0
1595838798617554527,48751,1595838798611675164,,0.132645025849,0.0,0.625,2.40833330154,0,0,1,0,0,0,0,0
1595838798623860420,48752,1595838798622005667,,0.134390354156,0.0,0.6875,2.43055558205,0,0,1,0,0,0,0,0
1595838798631946249,48753,1595838798631654620,,0.134390354156,0.0,0.6875,2.45000004768,0,0,1,0,0,0,0,0
1595838798642473978,48754,1595838798642056117,,0.134390354156,0.0,0.75,2.47222232819,0,0,1,0,0,0,0,0
1595838798652181426,48755,1595838798651658979,,0.134390354156,0.0,0.75,2.49166679382,0,0,1,0,0,0,0,0
1595838798662468863,48756,1595838798662089842,,0.136135682464,0.0,0.625,2.51388883591,0,0,1,0,0,0,0,0
1595838798672230738,48757,1595838798671657418,,0.137881010771,0.0,0.625,2.53333330154,0,0,1,0,0,0,0,0
1595838798682427381,48758,1595838798682104821,,0.137881010771,0.0,0.6875,2.55277776718,0,0,1,0,0,0,0,0
1595838798692136998,48759,1595838798691691154,,0.137881010771,0.0,0.6875,2.57222223282,0,0,1,0,0,0,0,0
1595838798702459448,48760,1595838798701934363,,0.137881010771,0.0,0.625,2.59166669846,0,0,1,0,0,0,0,0
1595838798711986684,48761,1595838798711660011,,0.139626339078,0.0,0.625,2.60833334923,0,0,1,0,0,0,0,0
1595838798723179964,48762,1595838798721954915,,0.139626339078,0.0,0.6875,2.63055562973,0,0,1,0,0,0,0,0
1595838798732497135,48763,1595838798731701095,,0.141371667385,0.0,0.6875,2.6472222805,0,0,1,0,0,0,0,0
1595838798742285015,48764,1595838798741895634,,0.143116995692,0.0,0.6875,2.669444561,0,0,1,0,0,0,0,0
1595838798751957809,48765,1595838798751680337,,0.144862323999,0.0,0.6875,2.68611121178,0,0,1,0,0,0,0,0
1595838798762134510,48766,1595838798761900371,,0.144862323999,0.0,0.6875,2.70833349228,0,0,1,0,0,0,0,0
1595838798771904143,48767,1595838798771654237,,0.144862323999,0.0,0.6875,2.72500014305,0,0,1,0,0,0,0,0
1595838798782162977,48768,1595838798781882325,,0.146607652307,0.0,0.625,2.74722218513,0,0,1,0,0,0,0,0
1595838798792266294,48769,1595838798791703986,,0.146607652307,0.0,0.625,2.76388907433,0,0,1,0,0,0,0,0
1595838798802277974,48770,1595838798801923181,,0.146607652307,0.0,0.625,2.78333330154,0,0,1,0,0,0,0,0
1595838798816284354,48771,1595838798811890667,,0.146607652307,0.0,0.625,2.79999995232,0,0,1,0,0,0,0,0
1595838798822200197,48772,1595838798821897757,,0.146607652307,0.0,0.5625,2.81944441795,0,0,1,0,0,0,0,0
1595838798831998979,48773,1595838798831692533,,0.146607652307,0.0,0.5625,2.83611106873,0,0,1,0,0,0,0,0
1595838798842099399,48774,1595838798841879594,,0.146607652307,0.0,0.6875,2.85833334923,0,0,1,0,0,0,0,0
1595838798852249168,48775,1595838798851693027,,0.146607652307,0.0,0.6875,2.875,0,0,1,0,0,0,0,0
1595838798862261173,48776,1595838798861899127,,0.148352980614,0.0,0.5625,2.89444446564,0,0,1,0,0,0,0,0
1595838798871971989,48777,1595838798871696510,,0.148352980614,0.0,0.5625,2.91388893127,0,0,1,0,0,0,0,0
1595838798882289140,48778,1595838798881905231,,0.148352980614,0.0,0.625,2.93333339691,0,0,1,0,0,0,0,0
1595838798893382814,48779,1595838798892603391,,0.148352980614,0.0,0.625,2.95000004768,0,0,1,0,0,0,0,0
1595838798902589058,48780,1595838798901946436,,0.148352980614,0.0,0.5625,2.96944451332,0,0,1,0,0,0,0,0
1595838798911954405,48781,1595838798911685890,,0.148352980614,0.0,0.5625,2.98611116409,0,0,1,0,0,0,0,0
1595838798925197758,48782,1595838798922050079,,0.148352980614,0.0,0.5,3.00555562973,0,0,1,0,0,0,0,0
1595838798932424426,48783,1595838798931694788,,0.148352980614,0.0,0.5,3.0222222805,0,0,1,0,0,0,0,0
1595838798942321322,48784,1595838798941894406,,0.148352980614,0.0,0.5625,3.044444561,0,0,1,0,0,0,0,0
1595838798952549347,48785,1595838798951689679,,0.148352980614,0.0,0.5625,3.06111121178,0,0,1,0,0,0,0,0
1595838798962357845,48786,1595838798961919596,,0.150098308921,0.0,0.5,3.08333349228,0,0,1,0,0,0,0,0
1595838798972667414,48787,1595838798971670750,,0.150098308921,0.0,0.5,3.10277795792,0,0,1,0,0,0,0,0
1595838798982109551,48788,1595838798981900944,,0.150098308921,0.0,0.5625,3.12222218513,0,0,1,0,0,0,0,0
1595838798992068413,48789,1595838798991692124,,0.150098308921,0.0,0.5625,3.13611125946,0,0,1,0,0,0,0,0
1595838799008960030,48790,1595838799001924905,,0.151843637228,0.0,0.5625,3.15833330154,0,0,1,0,0,0,0,0
1595838799011888787,48791,1595838799011658970,,0.151843637228,0.0,0.5625,3.17500019073,0,0,1,0,0,0,0,0
1595838799023010767,48792,1595838799022675933,,0.151843637228,0.0,0.625,3.19444441795,0,0,1,0,0,0,0,0
1595838799032103697,48793,1595838799031712515,,0.151843637228,0.0,0.625,3.21111130714,0,0,1,0,0,0,0,0
1595838799043446985,48794,1595838799042219717,,0.151843637228,0.0,0.6875,3.23055553436,0,0,1,0,0,0,0,0
1595838799053236652,48795,1595838799052120172,,0.151843637228,0.0,0.6875,3.24722218513,0,0,1,0,0,0,0,0
1595838799062489672,48796,1595838799062259070,,0.151843637228,0.0,0.625,3.26666665077,0,0,1,0,0,0,0,0
1595838799072855753,48797,1595838799072496249,,0.153588980436,0.0,0.625,3.28333330154,0,0,1,0,0,0,0,0
1595838799082773925,48798,1595838799081960086,,0.153588980436,0.0,0.5625,3.30277776718,0,0,1,0,0,0,0,0
1595838799096958297,48799,1595838799092534525,,0.153588980436,0.0,0.5625,3.31666684151,0,0,1,0,0,0,0,0
1595838799102409608,48800,1595838799101932973,,0.153588980436,0.0,0.625,3.33888888359,0,0,1,0,0,0,0,0
1595838799117188134,48801,1595838799112558182,,0.153588980436,0.0,0.625,3.35555553436,0,0,1,0,0,0,0,0
1595838799127910841,48802,1595838799127086250,,0.153588980436,0.0,0.5625,3.375,0,0,1,0,0,0,0,0
1595838799133733772,48803,1595838799133253888,,0.155334308743,0.0,0.5625,3.38888907433,0,0,1,0,0,0,0,0
1595838799142485022,48804,1595838799142059484,,0.153588980436,0.0,0.5,3.40833330154,0,0,1,0,0,0,0,0
1595838799155011496,48805,1595838799152354862,,0.153588980436,0.0,0.5,3.42222237587,0,0,1,0,0,0,0,0
1595838799168380732,48806,1595838799161891821,,0.153588980436,0.0,0.5,3.44166684151,0,0,1,0,0,0,0,0
1595838799174307981,48807,1595838799173842077,,0.153588980436,0.0,0.5,3.45833349228,0,0,1,0,0,0,0,0
1595838799184638898,48808,1595838799184237400,,0.153588980436,0.0,0.5,3.47777795792,0,0,1,0,0,0,0,0
1595838799193194180,48809,1595838799191708383,,0.153588980436,0.0,0.5,3.49444460869,0,0,1,0,0,0,0,0
1595838799202281359,48810,1595838799201942299,,0.153588980436,0.0,0.5,3.51111125946,0,0,1,0,0,0,0,0
1595838799212280766,48811,1595838799211686065,,0.153588980436,0.0,0.5,3.52777791023,0,0,1,0,0,0,0,0
1595838799224363303,48812,1595838799222813798,,0.153588980436,0.0,0.5,3.544444561,0,0,1,0,0,0,0,0
1595838799233068551,48813,1595838799232291821,,0.153588980436,0.0,0.5,3.55833339691,0,0,1,0,0,0,0,0
1595838799242277691,48814,1595838799241985972,,0.153588980436,0.0,0.5,3.57777786255,0,0,1,0,0,0,0,0
1595838799252780371,48815,1595838799252188133,,0.153588980436,0.0,0.5,3.59444451332,0,0,1,0,0,0,0,0
1595838799262662261,48816,1595838799262052679,,0.153588980436,0.0,0.5,3.61111116409,0,0,1,0,0,0,0,0
1595838799296995368,48817,1595838799291901462,,0.153588980436,0.0,0.5,3.62777781487,0,0,1,0,0,0,0,0
1595838799298781265,48818,1595838799291910630,,0.153588980436,0.0,0.375,3.64444446564,0,0,1,0,0,0,0,0
1595838799310197995,48819,1595838799292073435,,0.151843637228,0.0,0.375,3.66111111641,0,0,1,0,0,0,0,0
1595838799313779531,48820,1595838799302515092,,0.151843637228,0.0,0.375,3.67777776718,0,0,1,0,0,0,0,0
1595838799316263219,48821,1595838799312331347,,0.151843637228,0.0,0.375,3.69444441795,0,0,1,0,0,0,0,0
1595838799324047457,48822,1595838799322987987,,0.151843637228,0.0,0.3125,3.71111130714,0,0,1,0,0,0,0,0
1595838799334863056,48823,1595838799332354857,,0.150098308921,0.0,0.3125,3.72500014305,0,0,1,0,0,0,0,0
1595838799342691382,48824,1595838799341983025,,0.148352980614,0.0,0.25,3.74444460869,0,0,1,0,0,0,0,0
1595838799351978493,48825,1595838799351672583,,0.148352980614,0.0,0.25,3.76111125946,0,0,1,0,0,0,0,0
1595838799368625677,48826,1595838799368113543,,0.146607652307,0.0,0.25,3.77777791023,0,0,1,0,0,0,0,0
1595838799371994120,48827,1595838799371670676,,0.146607652307,0.0,0.25,3.79166674614,0,0,1,0,0,0,0,0
1595838799382384983,48828,1595838799381986095,,0.146607652307,0.0,0.125,3.80833339691,0,0,1,0,0,0,0,0
1595838799393587031,48829,1595838799391716047,,0.144862323999,0.0,0.125,3.82222223282,0,0,1,0,0,0,0,0
1595838799402257346,48830,1595838799401943662,,0.143116995692,0.0,0.25,3.84166669846,0,0,1,0,0,0,0,0
1595838799412858948,48831,1595838799412490444,,0.143116995692,0.0,0.25,3.85555553436,0,0,1,0,0,0,0,0
1595838799422387508,48832,1595838799421941065,,0.141371667385,0.0,0.1875,3.86944460869,0,0,1,0,0,0,0,0
1595838799431986211,48833,1595838799431682745,,0.141371667385,0.0,0.1875,3.8833334446,0,0,1,0,0,0,0,0
1595838799442294451,48834,1595838799441955771,,0.141371667385,0.0,0.1875,3.8972222805,0,0,1,0,0,0,0,0
1595838799456377467,48835,1595838799451714692,,0.141371667385,0.0,0.1875,3.91111111641,0,0,1,0,0,0,0,0
1595838799462293241,48836,1595838799461902099,,0.141371667385,0.0,0.125,3.92777776718,0,0,1,0,0,0,0,0
1595838799471939571,48837,1595838799471696343,,0.141371667385,0.0,0.125,3.93888902664,0,0,1,0,0,0,0,0
1595838799483793322,48838,1595838799483382565,,0.141371667385,0.0,0.0,3.95555567741,0,0,1,0,0,0,0,0
1595838799493995562,48839,1595838799492970589,,0.141371667385,0.0,0.0,3.96666669846,0,0,1,0,0,0,0,0
1595838799502215260,48840,1595838799501909783,,0.141371667385,0.0,-0.0625,3.98055553436,0,0,1,0,0,0,0,0
1595838799516866825,48841,1595838799512300856,,0.141371667385,0.0,-0.0625,3.99444460869,0,0,1,0,0,0,0,0
1595838799523260895,48842,1595838799522638410,,0.139626339078,0.0,-0.1875,4.00833320618,0,0,1,0,0,0,0,0
1595838799536099748,48843,1595838799535070135,,0.139626339078,0.0,-0.1875,4.01944446564,0,0,1,0,0,0,0,0
1595838799543793535,48844,1595838799542054861,,0.139626339078,0.0,-0.1875,4.03333330154,0,0,1,0,0,0,0,0
1595838799555129871,48845,1595838799551705500,,0.137881010771,0.0,-0.1875,4.044444561,0,0,1,0,0,0,0,0
1595838799562870989,48846,1595838799562558724,,0.137881010771,0.0,-0.1875,4.05833339691,0,0,1,0,0,0,0,0
1595838799574149963,48847,1595838799573605862,,0.136135682464,0.0,-0.1875,4.06944465637,0,0,1,0,0,0,0,0
1595838799584174734,48848,1595838799583738389,,0.134390354156,0.0,-0.25,4.080555439,0,0,1,0,0,0,0,0
1595838799594675653,48849,1595838799591860059,,0.132645025849,0.0,-0.25,4.08888912201,0,0,1,0,0,0,0,0
1595838799602231908,48850,1595838799601920980,,0.130899697542,0.0,-0.125,4.09999990463,0,0,1,0,0,0,0,0
1595838799612969645,48851,1595838799611715147,,0.129154369235,0.0,-0.125,4.10833358765,0,0,1,0,0,0,0,0
1595838799627095625,48852,1595838799621927695,,0.127409040928,0.0,-0.1875,4.125,0,0,1,0,0,0,0,0
1595838799635823172,48853,1595838799632194528,,0.12566369772,0.0,-0.1875,4.13611125946,0,0,1,0,0,0,0,0
1595838799642364931,48854,1595838799641903926,,0.123918376863,0.0,-0.125,4.15000009537,0,0,1,0,0,0,0,0
1595838799664301253,48855,1595838799663207896,,0.122173048556,0.0,-0.125,4.16111135483,0,0,1,0,0,0,0,0
1595838799664341132,48856,1595838799663216846,,0.118682384491,0.0,-0.0625,4.17222213745,0,0,1,0,0,0,0,0
1595838799673311315,48857,1595838799671705094,,0.116937056184,0.0,-0.0625,4.18333339691,0,0,1,0,0,0,0,0
1595838799682916279,48858,1595838799681938994,,0.115191727877,0.0,-0.125,4.19722223282,0,0,1,0,0,0,0,0
1595838799693315050,48859,1595838799691683549,,0.115191727877,0.0,-0.125,4.20833349228,0,0,1,0,0,0,0,0
1595838799702213853,48860,1595838799701943059,,0.111701071262,0.0,-0.125,4.21944475174,0,0,1,0,0,0,0,0
1595838799715695878,48861,1595838799714007425,,0.109955742955,0.0,-0.125,4.23055553436,0,0,1,0,0,0,0,0
1595838799723362697,48862,1595838799721949786,,0.109955742955,0.0,-0.125,4.24166679382,0,0,1,0,0,0,0,0
1595838799736206968,48863,1595838799731675890,,0.106465086341,0.0,-0.125,4.25,0,0,1,0,0,0,0,0
1595838799744577516,48864,1595838799741945733,,0.104719758034,0.0,-0.1875,4.26111125946,0,0,1,0,0,0,0,0
1595838799753217121,48865,1595838799752193879,,0.102974422276,0.0,-0.1875,4.27222251892,0,0,1,0,0,0,0,0
1595838799762316813,48866,1595838799761952474,,0.102974422276,0.0,-0.1875,4.28333330154,0,0,1,0,0,0,0,0
1595838799773895862,48867,1595838799771757784,,0.101229093969,0.0,-0.1875,4.29166698456,0,0,1,0,0,0,0,0
1595838799782532093,48868,1595838799781959330,,0.0994837656617,0.0,-0.25,4.30277776718,0,0,1,0,0,0,0,0
1595838799792382777,48869,1595838799791837785,,0.0977384373546,0.0,-0.25,4.3111114502,0,0,1,0,0,0,0,0
1595838799802234367,48870,1595838799801923757,,0.0977384373546,0.0,-0.375,4.31944465637,0,0,1,0,0,0,0,0
1595838799812676130,48871,1595838799811673356,,0.0959931090474,0.0,-0.375,4.32777786255,0,0,1,0,0,0,0,0
1595838799826203091,48872,1595838799821968605,,0.0959931090474,0.0,-0.1875,4.33611106873,0,0,1,0,0,0,0,0
1595838799832306871,48873,1595838799831730670,,0.0959931090474,0.0,-0.1875,4.34444475174,0,0,1,0,0,0,0,0
1595838799842714961,48874,1595838799841923814,,0.0959931090474,0.0,-0.4375,4.35277795792,0,0,1,0,0,0,0,0
1595838799852369695,48875,1595838799851672847,,0.0942477807403,0.0,-0.4375,4.35833358765,0,0,1,0,0,0,0,0
1595838799862821580,48876,1595838799861950857,,0.0942477807403,0.0,-0.25,4.36666679382,0,0,1,0,0,0,0,0
1595838799872058289,48877,1595838799871713195,,0.0942477807403,0.0,-0.25,4.37222242355,0,0,1,0,0,0,0,0
1595838799883646079,48878,1595838799881963728,,0.0942477807403,0.0,-0.25,4.38333320618,0,0,1,0,0,0,0,0
1595838799892111478,48879,1595838799891699518,,0.0942477807403,0.0,-0.25,4.39166688919,0,0,1,0,0,0,0,0
1595838799908596553,48880,1595838799902010548,,0.0942477807403,0.0,0.0,4.39722251892,0,0,1,0,0,0,0,0
1595838799912444568,48881,1595838799911716846,,0.0942477807403,0.0,0.0,4.40000009537,0,0,1,0,0,0,0,0
1595838799922852686,48882,1595838799921944861,,0.0942477807403,0.0,-0.1875,4.40833330154,0,0,1,0,0,0,0,0
1595838799931984168,48883,1595838799931677997,,0.0942477807403,0.0,-0.1875,4.41388893127,0,0,1,0,0,0,0,0
1595838799942490257,48884,1595838799941935683,,0.0925024524331,0.0,-0.1875,4.42222213745,0,0,1,0,0,0,0,0
1595838799951965867,48885,1595838799951719856,,0.0925024524331,0.0,-0.1875,4.43055582047,0,0,1,0,0,0,0,0
1595838799962354342,48886,1595838799961915376,,0.0925024524331,0.0,-0.125,4.43888902664,0,0,1,0,0,0,0,0
1595838799972158327,48887,1595838799971720476,,0.0907571166754,0.0,-0.125,4.44722223282,0,0,1,0,0,0,0,0
1595838799982478814,48888,1595838799982011594,,0.0907571166754,0.0,-0.125,4.45277786255,0,0,1,0,0,0,0,0
1595838799992020179,48889,1595838799991699002,,0.0907571166754,0.0,-0.125,4.45833349228,0,0,1,0,0,0,0,0
1595838800002551854,48890,1595838800001933010,,0.0907571166754,0.0,-0.25,4.46666669846,0,0,1,0,0,0,0,0
1595838800012271720,48891,1595838800011716684,,0.0907571166754,0.0,-0.25,4.46944475174,0,0,1,0,0,0,0,0
1595838800023450876,48892,1595838800022934460,,0.0907571166754,0.0,-0.125,4.47499990463,0,0,1,0,0,0,0,0
1595838800032264221,48893,1595838800031705348,,0.0890117883682,0.0,-0.125,4.48055553436,0,0,1,0,0,0,0,0
1595838800042323128,48894,1595838800041945890,,0.0890117883682,0.0,-0.125,4.48611116409,0,0,1,0,0,0,0,0
1595838800054663349,48895,1595838800051741185,,0.0890117883682,0.0,-0.125,4.48888921738,0,0,1,0,0,0,0,0
1595838800062205491,48896,1595838800061968598,,0.0890117883682,0.0,-0.125,4.49722242355,0,0,1,0,0,0,0,0
1595838800072021939,48897,1595838800071701262,,0.0890117883682,0.0,-0.125,4.50277805328,0,0,1,0,0,0,0,0
1595838800082518046,48898,1595838800082003441,,0.0872664600611,0.0,-0.125,4.50555562973,0,0,1,0,0,0,0,0
1595838800092103096,48899,1595838800091714866,,0.0872664600611,0.0,-0.125,4.51111125946,0,0,1,0,0,0,0,0
1595838800106616492,48900,1595838800103899864,,0.0872664600611,0.0,-0.0625,4.51388883591,0,0,1,0,0,0,0,0
1595838800116506001,48901,1595838800114211417,,0.0872664600611,0.0,-0.0625,4.51944446564,0,0,1,0,0,0,0,0
1595838800122194385,48902,1595838800121924026,,0.0872664600611,0.0,-0.125,4.52500009537,0,0,1,0,0,0,0,0
1595838800132107168,48903,1595838800131738376,,0.0872664600611,0.0,-0.125,4.5305557251,0,0,1,0,0,0,0,0
1595838800142162113,48904,1595838800141920123,,0.0872664600611,0.0,-0.25,4.53611135483,0,0,1,0,0,0,0,0
1595838800152046323,48905,1595838800151728474,,0.0872664600611,0.0,-0.25,4.53888893127,0,0,1,0,0,0,0,0
1595838800164864578,48906,1595838800162211916,,0.0872664600611,0.0,-0.25,4.54166698456,0,0,1,0,0,0,0,0
1595838800172102255,48907,1595838800171710013,,0.0872664600611,0.0,-0.25,4.54722213745,0,0,1,0,0,0,0,0
1595838800183320459,48908,1595838800182429764,,0.0872664600611,0.0,-0.3125,4.55277776718,0,0,1,0,0,0,0,0
1595838800192354713,48909,1595838800191833318,,0.0872664600611,0.0,-0.3125,4.55833339691,0,0,1,0,0,0,0,0
1595838800203851777,48910,1595838800201933284,,0.0872664600611,0.0,-0.3125,4.56388902664,0,0,1,0,0,0,0,0
1595838800216440636,48911,1595838800211946870,,0.0872664600611,0.0,-0.3125,4.56944465637,0,0,1,0,0,0,0,0
1595838800224648290,48912,1595838800222123047,,0.0872664600611,0.0,-0.25,4.5750002861,0,0,1,0,0,0,0,0
1595838800234589039,48913,1595838800231718499,,0.0872664600611,0.0,-0.25,4.580555439,0,0,1,0,0,0,0,0
1595838800242299299,48914,1595838800241930381,,0.0872664600611,0.0,-0.25,4.58611106873,0,0,1,0,0,0,0,0
1595838800258106734,48915,1595838800254740751,,0.0872664600611,0.0,-0.25,4.58888912201,0,0,1,0,0,0,0,0
1595838800262425092,48916,1595838800261915917,,0.0872664600611,0.0,-0.25,4.59444475174,0,0,1,0,0,0,0,0
1595838800271949746,48917,1595838800271721850,,0.0872664600611,0.0,-0.25,4.59722232819,0,0,1,0,0,0,0,0
1595838800282873059,48918,1595838800281983027,,0.0872664600611,0.0,0.0,4.59999990463,0,0,1,0,0,0,0,0
1595838800293157739,48919,1595838800291727938,,0.0890117883682,0.0,0.0,4.60277795792,0,0,1,0,0,0,0,0
1595838800302442891,48920,1595838800302111824,,0.0890117883682,0.0,0.0625,4.60833358765,0,0,1,0,0,0,0,0
1595838800319042307,48921,1595838800314907644,,0.0907571166754,0.0,0.0625,4.61111116409,0,0,1,0,0,0,0,0
1595838800328912411,48922,1595838800327693481,,0.0907571166754,0.0,0.125,4.61388921738,0,0,1,0,0,0,0,0
1595838800332048274,48923,1595838800331731174,,0.0907571166754,0.0,0.125,4.61666679382,0,0,1,0,0,0,0,0
1595838800342521036,48924,1595838800342129371,,0.0925024524331,0.0,0.1875,4.61944437027,0,0,1,0,0,0,0,0
1595838800352102148,48925,1595838800351739892,,0.0925024524331,0.0,0.1875,4.62222242355,0,0,1,0,0,0,0,0
1595838800363035092,48926,1595838800361941495,,0.0942477807403,0.0,0.1875,4.625,0,0,1,0,0,0,0,0
1595838800372442395,48927,1595838800371697040,,0.0942477807403,0.0,0.1875,4.62777805328,0,0,1,0,0,0,0,0
1595838800382297098,48928,1595838800381983399,,0.0942477807403,0.0,0.125,4.63055562973,0,0,1,0,0,0,0,0
1595838800392475743,48929,1595838800392060108,,0.0942477807403,0.0,0.125,4.63055562973,0,0,1,0,0,0,0,0
1595838800404375019,48930,1595838800401946828,,0.0942477807403,0.0,0.125,4.63333368301,0,0,1,0,0,0,0,0
1595838800414378288,48931,1595838800411759711,,0.0942477807403,0.0,0.125,4.63611125946,0,0,1,0,0,0,0,0
1595838800422295178,48932,1595838800421926571,,0.0942477807403,0.0,0.0,4.64166688919,0,0,1,0,0,0,0,0
1595838800432161309,48933,1595838800431729537,,0.0942477807403,0.0,0.0,4.64444446564,0,0,1,0,0,0,0,0
1595838800442296460,48934,1595838800441969630,,0.0942477807403,0.0,0.0,4.64722251892,0,0,1,0,0,0,0,0
1595838800452725544,48935,1595838800451731314,,0.0942477807403,0.0,0.0,4.65000009537,0,0,1,0,0,0,0,0
1595838800462376060,48936,1595838800461928171,,0.0942477807403,0.0,0.0625,4.65277767181,0,0,1,0,0,0,0,0
1595838800473145288,48937,1595838800471729283,,0.0942477807403,0.0,0.0625,4.6555557251,0,0,1,0,0,0,0,0
1595838800482713973,48938,1595838800481995271,,0.0942477807403,0.0,0.1875,4.65833330154,0,0,1,0,0,0,0,0
1595838800492417516,48939,1595838800491758031,,0.0959931090474,0.0,0.1875,4.66111135483,0,0,1,0,0,0,0,0
1595838800502288262,48940,1595838800501953542,,0.0959931090474,0.0,0.0625,4.65833330154,0,0,1,0,0,0,0,0
1595838800512019045,48941,1595838800511696503,,0.0977384373546,0.0,0.0625,4.6555557251,0,0,1,0,0,0,0,0
1595838800522408750,48942,1595838800521988206,,0.0977384373546,0.0,0.1875,4.65833330154,0,0,1,0,0,0,0,0
1595838800532336276,48943,1595838800531704544,,0.0994837656617,0.0,0.1875,4.65833330154,0,0,1,0,0,0,0,0
1595838800542238315,48944,1595838800541933540,,0.0994837656617,0.0,0.25,4.66111135483,0,0,1,0,0,0,0,0
1595838800552236894,48945,1595838800551734994,,0.102974422276,0.0,0.25,4.66111135483,0,0,1,0,0,0,0,0
1595838800564431676,48946,1595838800561991006,,0.102974422276,0.0,0.1875,4.66111135483,0,0,1,0,0,0,0,0
1595838800575231489,48947,1595838800571738050,,0.102974422276,0.0,0.1875,4.66388893127,0,0,1,0,0,0,0,0
1595838800582577094,48948,1595838800581994476,,0.102974422276,0.0,0.25,4.66388893127,0,0,1,0,0,0,0,0
1595838800592048754,48949,1595838800591730793,,0.104719758034,0.0,0.25,4.66388893127,0,0,1,0,0,0,0,0
1595838800602355797,48950,1595838800601945536,,0.104719758034,0.0,0.25,4.66388893127,0,0,1,0,0,0,0,0
1595838800611947571,48951,1595838800611734054,,0.104719758034,0.0,0.25,4.66388893127,0,0,1,0,0,0,0,0
1595838800623908397,48952,1595838800623094133,,0.104719758034,0.0,0.1875,4.66111135483,0,0,1,0,0,0,0,0
1595838800636724098,48953,1595838800635118576,,0.104719758034,0.0,0.1875,4.66111135483,0,0,1,0,0,0,0,0
1595838800642474724,48954,1595838800642102399,,0.104719758034,0.0,0.1875,4.66111135483,0,0,1,0,0,0,0,0
1595838800652100557,48955,1595838800651712288,,0.104719758034,0.0,0.1875,4.65833330154,0,0,1,0,0,0,0,0
1595838800665006006,48956,1595838800663659747,,0.104719758034,0.0,0.1875,4.66111135483,0,0,1,0,0,0,0,0
1595838800672169028,48957,1595838800671751277,,0.104719758034,0.0,0.1875,4.66666698456,0,0,1,0,0,0,0,0
1595838800682772311,48958,1595838800681962487,,0.104719758034,0.0,0.0625,4.66666698456,0,0,1,0,0,0,0,0
1595838800692179081,48959,1595838800691773825,,0.104719758034,0.0,0.0625,4.66666698456,0,0,1,0,0,0,0,0
1595838800702484735,48960,1595838800701949972,,0.104719758034,0.0,0.125,4.66666698456,0,0,1,0,0,0,0,0
1595838800711948117,48961,1595838800711731655,,0.104719758034,0.0,0.125,4.66666698456,0,0,1,0,0,0,0,0
1595838800722252745,48962,1595838800721953354,,0.104719758034,0.0,0.1875,4.66666698456,0,0,1,0,0,0,0,0
1595838800733016024,48963,1595838800731718065,,0.104719758034,0.0,0.1875,4.66666698456,0,0,1,0,0,0,0,0
1595838800742353423,48964,1595838800741946263,,0.104719758034,0.0,0.0625,4.66666698456,0,0,1,0,0,0,0,0
1595838800752178211,48965,1595838800751735712,,0.104719758034,0.0,0.0625,4.66666698456,0,0,1,0,0,0,0,0
1595838800762284980,48966,1595838800761955739,,0.104719758034,0.0,0.0625,4.669444561,0,0,1,0,0,0,0,0
1595838800772595329,48967,1595838800771739377,,0.104719758034,0.0,0.0625,4.67222213745,0,0,1,0,0,0,0,0
1595838800783077967,48968,1595838800782110630,,0.104719758034,0.0,0.0,4.67222213745,0,0,1,0,0,0,0,0
1595838800792157973,48969,1595838800791729466,,0.104719758034,0.0,0.0,4.67500019073,0,0,1,0,0,0,0,0
1595838800807560580,48970,1595838800802386207,,0.104719758034,0.0,-0.0625,4.67222213745,0,0,1,0,0,0,0,0
1595838800812641322,48971,1595838800811714433,,0.104719758034,0.0,-0.0625,4.67222213745,0,0,1,0,0,0,0,0
1595838800822777474,48972,1595838800822393783,,0.104719758034,0.0,0.0625,4.67500019073,0,0,1,0,0,0,0,0
1595838800833656810,48973,1595838800831977330,,0.104719758034,0.0,0.0625,4.67777776718,0,0,1,0,0,0,0,0
1595838800842365702,48974,1595838800841981883,,0.104719758034,0.0,0.0625,4.67777776718,0,0,1,0,0,0,0,0
1595838800852145619,48975,1595838800851748285,,0.104719758034,0.0,0.0625,4.67500019073,0,0,1,0,0,0,0,0
1595838800862517008,48976,1595838800862057146,,0.104719758034,0.0,0.125,4.67500019073,0,0,1,0,0,0,0,0
1595838800872898981,48977,1595838800872048415,,0.104719758034,0.0,0.125,4.67500019073,0,0,1,0,0,0,0,0
1595838800882572709,48978,1595838800881991444,,0.104719758034,0.0,0.25,4.67222213745,0,0,1,0,0,0,0,0
1595838800893363770,48979,1595838800892770514,,0.104719758034,0.0,0.25,4.67222213745,0,0,1,0,0,0,0,0
1595838800903418313,48980,1595838800902913387,,0.104719758034,0.0,0.125,4.669444561,0,0,1,0,0,0,0,0
1595838800913400189,48981,1595838800911750929,,0.104719758034,0.0,0.125,4.66666698456,0,0,1,0,0,0,0,0
1595838800924255978,48982,1595838800922396565,,0.104719758034,0.0,0.0625,4.66666698456,0,0,1,0,0,0,0,0
1595838800932105167,48983,1595838800931739033,,0.104719758034,0.0,0.0625,4.66666698456,0,0,1,0,0,0,0,0
1595838800944187421,48984,1595838800943556320,,0.104719758034,0.0,0.0625,4.66388893127,0,0,1,0,0,0,0,0
1595838800953010038,48985,1595838800952032710,,0.104719758034,0.0,0.0625,4.66388893127,0,0,1,0,0,0,0,0
1595838800962233664,48986,1595838800961950885,,0.104719758034,0.0,0.0,4.66111135483,0,0,1,0,0,0,0,0
1595838800972279474,48987,1595838800971881030,,0.104719758034,0.0,0.0,4.66111135483,0,0,1,0,0,0,0,0
1595838800982434862,48988,1595838800981993254,,0.104719758034,0.0,-0.0625,4.66111135483,0,0,1,0,0,0,0,0
1595838800992256318,48989,1595838800991747611,,0.104719758034,0.0,-0.0625,4.66111135483,0,0,1,0,0,0,0,0
1595838801004843483,48990,1595838801002022487,,0.104719758034,0.0,-0.125,4.65833330154,0,0,1,0,0,0,0,0
1595838801013263468,48991,1595838801013034070,,0.104719758034,0.0,-0.125,4.65833330154,0,0,1,0,0,0,0,0
1595838801025218697,48992,1595838801024137591,,0.104719758034,0.0,-0.1875,4.6555557251,0,0,1,0,0,0,0,0
1595838801032775433,48993,1595838801031792453,,0.104719758034,0.0,-0.1875,4.65277767181,0,0,1,0,0,0,0,0
1595838801042372113,48994,1595838801041944264,,0.104719758034,0.0,-0.25,4.65277767181,0,0,1,0,0,0,0,0
1595838801052302990,48995,1595838801051745705,,0.104719758034,0.0,-0.25,4.65000009537,0,0,1,0,0,0,0,0
1595838801062195354,48996,1595838801061940181,,0.102974422276,0.0,-0.375,4.65277767181,0,0,1,0,0,0,0,0
1595838801077666651,48997,1595838801076182099,,0.102974422276,0.0,-0.375,4.65277767181,0,0,1,0,0,0,0,0
1595838801082873411,48998,1595838801082062083,,0.102974422276,0.0,-0.1875,4.65277767181,0,0,1,0,0,0,0,0
1595838801092166433,48999,1595838801091747805,,0.102974422276,0.0,-0.1875,4.65000009537,0,0,1,0,0,0,0,0
1595838801103150166,49000,1595838801102012080,,0.101229093969,0.0,-0.4375,4.65000009537,0,0,1,0,0,0,0,0
1595838801112307910,49001,1595838801111727934,,0.0994837656617,0.0,-0.4375,4.65000009537,0,0,1,0,0,0,0,0
1595838801123538839,49002,1595838801121970888,,0.0977384373546,0.0,-0.5625,4.65000009537,0,0,1,0,0,0,0,0
1595838801132382234,49003,1595838801131776462,,0.0942477807403,0.0,-0.5625,4.65000009537,0,0,1,0,0,0,0,0
1595838801143834750,49004,1595838801142004473,,0.0907571166754,0.0,-0.5,4.65000009537,0,0,1,0,0,0,0,0
1595838801152055375,49005,1595838801151740335,,0.0890117883682,0.0,-0.5,4.65277767181,0,0,1,0,0,0,0,0
1595838801162262485,49006,1595838801161970876,,0.0872664600611,0.0,-0.6875,4.65000009537,0,0,1,0,0,0,0,0
1595838801173582487,49007,1595838801171757109,,0.0855211317539,0.0,-0.6875,4.65000009537,0,0,1,0,0,0,0,0
1595838801182232929,49008,1595838801181963600,,0.0820304751396,0.0,-0.625,4.65000009537,0,0,1,0,0,0,0,0
1595838801191968817,49009,1595838801191726936,,0.0785398185253,0.0,-0.625,4.65277767181,0,0,1,0,0,0,0,0
1595838801202258491,49010,1595838801201947580,,0.0750491544604,0.0,-0.6875,4.65000009537,0,0,1,0,0,0,0,0
1595838801212218526,49011,1595838801211751062,,0.0733038261533,0.0,-0.6875,4.65000009537,0,0,1,0,0,0,0,0
1595838801222542137,49012,1595838801222012016,,0.069813169539,0.0,-0.6875,4.65000009537,0,0,1,0,0,0,0,0
1595838801232426267,49013,1595838801231750067,,0.0663225129247,0.0,-0.6875,4.65000009537,0,0,1,0,0,0,0,0
1595838801243830665,49014,1595838801241979733,,0.0628318488598,0.0,-0.75,4.64722251892,0,0,1,0,0,0,0,0
1595838801252029769,49015,1595838801251722356,,0.0610865242779,0.0,-0.75,4.64722251892,0,0,1,0,0,0,0,0
1595838801262534596,49016,1595838801261992736,,0.0593411922455,0.0,-0.6875,4.65000009537,0,0,1,0,0,0,0,0
1595838801273587565,49017,1595838801271763503,,0.0558505356312,0.0,-0.6875,4.65000009537,0,0,1,0,0,0,0,0
1595838801282273050,49018,1595838801281945872,,0.054105207324,0.0,-0.75,4.64722251892,0,0,1,0,0,0,0,0
1595838801291973914,49019,1595838801291728367,,0.0523598790169,0.0,-0.75,4.64444446564,0,0,1,0,0,0,0,0
1595838801303031524,49020,1595838801301953193,,0.0488692186773,0.0,-0.625,4.64444446564,0,0,1,0,0,0,0,0
1595838801313057929,49021,1595838801311763906,,0.0488692186773,0.0,-0.625,4.64166688919,0,0,1,0,0,0,0,0
1595838801322390952,49022,1595838801321971661,,0.0471238903701,0.0,-0.8125,4.64444446564,0,0,1,0,0,0,0,0
1595838801332230090,49023,1595838801331755578,,0.0436332300305,0.0,-0.8125,4.64444446564,0,0,1,0,0,0,0,0
1595838801343650992,49024,1595838801342090110,,0.0418879017234,0.0,-0.75,4.64444446564,0,0,1,0,0,0,0,0
1595838801352701963,49025,1595838801351747355,,0.0383972451091,0.0,-0.75,4.64722251892,0,0,1,0,0,0,0,0
1595838801362376809,49026,1595838801361989465,,0.0366519130766,0.0,-0.625,4.64166688919,0,0,1,0,0,0,0,0
1595838801374703983,49027,1595838801371718505,,0.0349065847695,0.0,-0.625,4.64166688919,0,0,1,0,0,0,0,0
1595838801385745678,49028,1595838801381969795,,0.0331612564623,0.0,-0.6875,4.63611125946,0,0,1,0,0,0,0,0
1595838801392049674,49029,1595838801391730560,,0.0314159244299,0.0,-0.6875,4.63333368301,0,0,1,0,0,0,0,0
1595838801402533900,49030,1595838801401983068,,0.0296705961227,0.0,-0.625,4.63611125946,0,0,1,0,0,0,0,0
1595838801414976194,49031,1595838801411764169,,0.0261799395084,0.0,-0.625,4.63611125946,0,0,1,0,0,0,0,0
1595838801422427106,49032,1595838801421956580,,0.0244346093386,0.0,-0.5625,4.63888883591,0,0,1,0,0,0,0,0
1595838801432174857,49033,1595838801431717024,,0.0226892791688,0.0,-0.5625,4.64166688919,0,0,1,0,0,0,0,0
1595838801443943611,49034,1595838801441977426,,0.0209439508617,0.0,-0.8125,4.63888883591,0,0,1,0,0,0,0,0
1595838801456692647,49035,1595838801451953022,,0.0191986225545,0.0,-0.8125,4.63611125946,0,0,1,0,0,0,0,0
1595838801462244876,49036,1595838801461951856,,0.0174532923847,0.0,-0.625,4.63333368301,0,0,1,0,0,0,0,0
1595838801474704622,49037,1595838801471714446,,0.0139626339078,0.0,-0.625,4.63055562973,0,0,1,0,0,0,0,0
1595838801482272997,49038,1595838801481946302,,0.0122173046693,0.0,-0.5625,4.63333368301,0,0,1,0,0,0,0,0
1595838801494099077,49039,1595838801491741207,,0.0122173046693,0.0,-0.5625,4.63333368301,0,0,1,0,0,0,0,0
1595838801503551194,49040,1595838801501948879,,0.0104719754308,0.0,-0.75,4.63333368301,0,0,1,0,0,0,0,0
1595838801512136989,49041,1595838801511751665,,0.0069813169539,0.0,-0.75,4.63055562973,0,0,1,0,0,0,0,0
1595838801522918393,49042,1595838801522020578,,0.00349065847695,0.0,-0.5625,4.63055562973,0,0,1,0,0,0,0,0
1595838801535522355,49043,1595838801534827526,,0.0,0.0,-0.5625,4.62777805328,0,0,1,0,0,0,0,0
1595838801546409027,49044,1595838801545728730,,-0.00174532923847,0.0,-0.625,4.62777805328,0,0,1,0,0,0,0,0
1595838801552905711,49045,1595838801551838565,,-0.00523598771542,0.0,-0.625,4.63055562973,0,0,1,0,0,0,0,0
1595838801568204386,49046,1595838801562233404,,-0.0069813169539,0.0,-0.75,4.63055562973,0,0,1,0,0,0,0,0
1595838801576705489,49047,1595838801576221032,,-0.0122173046693,0.0,-0.75,4.63333368301,0,0,1,0,0,0,0,0
1595838801582438297,49048,1595838801581980506,,-0.0139626339078,0.0,-0.625,4.63333368301,0,0,1,0,0,0,0,0
1595838801595398281,49049,1595838801591838176,,-0.0174532923847,0.0,-0.625,4.63333368301,0,0,1,0,0,0,0,0
1595838801612233554,49050,1595838801607082860,,-0.0174532923847,0.0,-0.5,4.63333368301,0,0,1,0,0,0,0,0
