time,.header.seq,.header.stamp.secs,.header.stamp.nsecs,.header.frame_id,.novatel_msg_header.message_name,.novatel_msg_header.port,.novatel_msg_header.sequence_num,.novatel_msg_header.percent_idle_time,.novatel_msg_header.gps_time_status,.novatel_msg_header.gps_week_num,.novatel_msg_header.gps_seconds,.novatel_msg_header.receiver_status.original_status_code,.novatel_msg_header.receiver_status.error_flag,.novatel_msg_header.receiver_status.temperature_flag,.novatel_msg_header.receiver_status.voltage_supply_flag,.novatel_msg_header.receiver_status.antenna_powered,.novatel_msg_header.receiver_status.antenna_is_open,.novatel_msg_header.receiver_status.antenna_is_shorted,.novatel_msg_header.receiver_status.cpu_overload_flag,.novatel_msg_header.receiver_status.com1_buffer_overrun,.novatel_msg_header.receiver_status.com2_buffer_overrun,.novatel_msg_header.receiver_status.com3_buffer_overrun,.novatel_msg_header.receiver_status.usb_buffer_overrun,.novatel_msg_header.receiver_status.rf1_agc_flag,.novatel_msg_header.receiver_status.rf2_agc_flag,.novatel_msg_header.receiver_status.almanac_flag,.novatel_msg_header.receiver_status.position_solution_flag,.novatel_msg_header.receiver_status.position_fixed_flag,.novatel_msg_header.receiver_status.clock_steering_status_enabled,.novatel_msg_header.receiver_status.clock_model_flag,.novatel_msg_header.receiver_status.oemv_external_oscillator_flag,.novatel_msg_header.receiver_status.software_resource_flag,.novatel_msg_header.receiver_status.aux1_status_event_flag,.novatel_msg_header.receiver_status.aux2_status_event_flag,.novatel_msg_header.receiver_status.aux3_status_event_flag,.novatel_msg_header.receiver_software_version,.week,.seconds,.latitude,.longitude,.height,.north_velocity,.east_velocity,.up_velocity,.roll,.pitch,.azimuth,.status
2024/09/04/14:08:33.081224,34707,1725451713,79043494,/novatel/imu,INSPVAA,USB3,0,14.5,FINESTEERING,2330,302847.87,0,False,False,False,True,False,False,False,False,False,False,False,False,False,False,False,False,True,False,False,False,False,False,False,14102,2330,302847.87,48.7967979817,1.98697209686,201.6859,-1.0164,-0.7359,-0.0148,-0.094660535,-0.67810896,213.820459361,INS_SOLUTION_GOOD
2024/09/04/14:08:33.081612,34708,1725451713,81272407,/novatel/imu,INSPVAA,USB3,0,14.5,FINESTEERING,2330,302847.88,0,False,False,False,True,False,False,False,False,False,False,False,False,False,False,False,False,True,False,False,False,False,False,False,14102,2330,302847.88,48.7967978901,1.98697199738,201.6858,-1.0167,-0.7336,-0.0114,-0.093829077,-0.676050317,213.81663185,INS_SOLUTION_GOOD
2024/09/04/14:08:33.090314,34709,1725451713,89010470,/novatel/imu,INSPVAA,USB3,0,14.5,FINESTEERING,2330,302847.89,0,False,False,False,True,False,False,False,False,False,False,False,False,False,False,False,False,True,False,False,False,False,False,False,14102,2330,302847.89,48.7967977984,1.98697189737,201.6857,-1.0172,-0.7343,-0.0092,-0.096592971,-0.670341821,213.814805735,INS_SOLUTION_GOOD
2024/09/04/14:08:33.111990,34710,1725451713,111371694,/novatel/imu,INSPVAA,USB3,0,14.5,FINESTEERING,2330,302847.9,0,False,False,False,True,False,False,False,False,False,False,False,False,False,False,False,False,True,False,False,False,False,False,False,14102,2330,302847.9,48.7967977072,1.98697179707,201.6856,-1.0171,-0.7375,-0.0093,-0.101921029,-0.672991124,213.809246631,INS_SOLUTION_GOOD
2024/09/04/14:08:33.115212,34711,1725451713,114752046,/novatel/imu,INSPVAA,USB3,0,14.5,FINESTEERING,2330,302847.91,0,False,False,False,True,False,False,False,False,False,False,False,False,False,False,False,False,True,False,False,False,False,False,False,14102,2330,302847.91,48.796797615,1.98697169676,201.6854,-1.021,-0.7382,-0.0125,-0.103958527,-0.66627773,213.80779366,INS_SOLUTION_GOOD
2024/09/04/14:08:33.120387,34712,1725451713,120031788,/novatel/imu,INSPVAA,USB3,0,14.5,FINESTEERING,2330,302847.92,0,False,False,False,True,False,False,False,False,False,False,False,False,False,False,False,False,True,False,False,False,False,False,False,14102,2330,302847.92,48.796797523,1.98697159665,201.6852,-1.0236,-0.7397,-0.0187,-0.104497836,-0.66792234,213.802740843,INS_SOLUTION_GOOD
2024/09/04/14:08:33.131182,34713,1725451713,130297871,/novatel/imu,INSPVAA,USB3,0,14.5,FINESTEERING,2330,302847.93,0,False,False,False,True,False,False,False,False,False,False,False,False,False,False,False,False,True,False,False,False,False,False,False,14102,2330,302847.93,48.7967974307,1.98697149608,201.6851,-1.0251,-0.7396,-0.0172,-0.108100934,-0.663131934,213.799597559,INS_SOLUTION_GOOD
2024/09/04/14:08:33.139738,34714,1725451713,139282996,/novatel/imu,INSPVAA,USB3,0,14.5,FINESTEERING,2330,302847.94,0,False,False,False,True,False,False,False,False,False,False,False,False,False,False,False,False,True,False,False,False,False,False,False,14102,2330,302847.94,48.7967973385,1.98697139596,201.6849,-1.0242,-0.7385,-0.0141,-0.108717289,-0.659747826,213.79789726,INS_SOLUTION_GOOD
2024/09/04/14:08:33.158442,34715,1725451713,158157526,/novatel/imu,INSPVAA,USB3,0,14.5,FINESTEERING,2330,302847.95,0,False,False,False,True,False,False,False,False,False,False,False,False,False,False,False,False,True,False,False,False,False,False,False,14102,2330,302847.95,48.7967972454,1.9869712954,201.6848,-1.0317,-0.7391,-0.0099,-0.11235424,-0.653031362,213.795998332,INS_SOLUTION_GOOD
2024/09/04/14:08:33.161838,34716,1725451713,161576305,/novatel/imu,INSPVAA,USB3,0,14.5,FINESTEERING,2330,302847.96,0,False,False,False,True,False,False,False,False,False,False,False,False,False,False,False,False,True,False,False,False,False,False,False,14102,2330,302847.96,48.796797153,1.98697119574,201.6847,-1.032,-0.7371,-0.0123,-0.11455842,-0.661025421,213.796563613,INS_SOLUTION_GOOD
2024/09/04/14:08:33.176090,34717,1725451713,175631595,/novatel/imu,INSPVAA,USB3,0,14.5,FINESTEERING,2330,302847.97,0,False,False,False,True,False,False,False,False,False,False,False,False,False,False,False,False,True,False,False,False,False,False,False,14102,2330,302847.97,48.7967970606,1.9869710961,201.6847,-1.0298,-0.7345,-0.0037,-0.118277743,-0.663240167,213.796283642,INS_SOLUTION_GOOD
2024/09/04/14:08:33.181182,34718,1725451713,180086063,/novatel/imu,INSPVAA,USB3,0,14.5,FINESTEERING,2330,302847.98,0,False,False,False,True,False,False,False,False,False,False,False,False,False,False,False,False,True,False,False,False,False,False,False,14102,2330,302847.98,48.7967969674,1.98697099532,201.6846,-1.0331,-0.7375,-0.0022,-0.125747345,-0.656561581,213.792253921,INS_SOLUTION_GOOD
2024/09/04/14:08:33.188634,34719,1725451713,188224589,/novatel/imu,INSPVAA,USB3,0,14.5,FINESTEERING,2330,302847.99,0,False,False,False,True,False,False,False,False,False,False,False,False,False,False,False,False,True,False,False,False,False,False,False,14102,2330,302847.99,48.796796874,1.98697089524,201.6846,-1.0383,-0.7372,-0.0025,-0.130902844,-0.659134293,213.793822879,INS_SOLUTION_GOOD
2024/09/04/14:08:33.216620,34720,1725451713,216349439,/novatel/imu,INSPVAA,USB3,0,14.5,FINESTEERING,2330,302848.0,0,False,False,False,True,False,False,False,False,False,False,False,False,False,False,False,False,True,False,False,False,False,False,False,14102,2330,302848.0,48.7967967807,1.98697079576,201.6845,-1.0401,-0.7362,-0.0015,-0.131873119,-0.665387079,213.795805561,INS_SOLUTION_GOOD
2024/09/04/14:08:33.222394,34721,1725451713,222055368,/novatel/imu,INSPVAA,USB3,0,14.5,FINESTEERING,2330,302848.01,0,False,False,False,True,False,False,False,False,False,False,False,False,False,False,False,False,True,False,False,False,False,False,False,14102,2330,302848.01,48.7967966875,1.98697069549,201.6845,-1.039,-0.7363,-0.0005,-0.142676812,-0.668427395,213.796074164,INS_SOLUTION_GOOD
2024/09/04/14:08:33.223382,34722,1725451713,223134541,/novatel/imu,INSPVAA,USB3,0,14.5,FINESTEERING,2330,302848.02,0,False,False,False,True,False,False,False,False,False,False,False,False,False,False,False,False,True,False,False,False,False,False,False,14102,2330,302848.02,48.7967965939,1.98697059632,201.6844,-1.0391,-0.7329,-0.005,-0.141870316,-0.671458362,213.798055275,INS_SOLUTION_GOOD
2024/09/04/14:08:33.228734,34723,1725451713,228432845,/novatel/imu,INSPVAA,USB3,0,14.5,FINESTEERING,2330,302848.03,0,False,False,False,True,False,False,False,False,False,False,False,False,False,False,False,False,True,False,False,False,False,False,False,14102,2330,302848.03,48.7967965003,1.9869704962,201.6845,-1.0387,-0.7347,0.0055,-0.148265601,-0.670103612,213.799506526,INS_SOLUTION_GOOD
2024/09/04/14:08:33.244447,34724,1725451713,244099934,/novatel/imu,INSPVAA,USB3,0,14.5,FINESTEERING,2330,302848.04,0,False,False,False,True,False,False,False,False,False,False,False,False,False,False,False,False,True,False,False,False,False,False,False,14102,2330,302848.04,48.7967964062,1.98697039594,201.6846,-1.0438,-0.7389,0.0076,-0.148585434,-0.672340935,213.799261976,INS_SOLUTION_GOOD
2024/09/04/14:08:33.259522,34725,1725451713,257148456,/novatel/imu,INSPVAA,USB3,0,14.5,FINESTEERING,2330,302848.05,0,False,False,False,True,False,False,False,False,False,False,False,False,False,False,False,False,True,False,False,False,False,False,False,14102,2330,302848.05,48.7967963125,1.98697029723,201.6845,-1.0439,-0.7347,0.0012,-0.144129734,-0.687125922,213.803174762,INS_SOLUTION_GOOD
2024/09/04/14:08:33.261817,34726,1725451713,260921016,/novatel/imu,INSPVAA,USB3,0,14.5,FINESTEERING,2330,302848.06,0,False,False,False,True,False,False,False,False,False,False,False,False,False,False,False,False,True,False,False,False,False,False,False,14102,2330,302848.06,48.7967962187,1.98697019734,201.6845,-1.0421,-0.7371,-0.0043,-0.139113744,-0.690917583,213.803910429,INS_SOLUTION_GOOD
2024/09/04/14:08:33.272299,34727,1725451713,271884395,/novatel/imu,INSPVAA,USB3,0,14.5,FINESTEERING,2330,302848.07,0,False,False,False,True,False,False,False,False,False,False,False,False,False,False,False,False,True,False,False,False,False,False,False,14102,2330,302848.07,48.7967961239,1.98697009721,201.6845,-1.0462,-0.7375,-0.0043,-0.132569512,-0.683073898,213.805435488,INS_SOLUTION_GOOD
2024/09/04/14:08:33.282866,34728,1725451713,282094699,/novatel/imu,INSPVAA,USB3,0,14.5,FINESTEERING,2330,302848.08,0,False,False,False,True,False,False,False,False,False,False,False,False,False,False,False,False,True,False,False,False,False,False,False,14102,2330,302848.08,48.7967960298,1.98696999655,201.6845,-1.0463,-0.7419,0.0009,-0.130065205,-0.688206917,213.807635059,INS_SOLUTION_GOOD
2024/09/04/14:08:33.289809,34729,1725451713,289525387,/novatel/imu,INSPVAA,USB3,0,14.5,FINESTEERING,2330,302848.09,0,False,False,False,True,False,False,False,False,False,False,False,False,False,False,False,False,True,False,False,False,False,False,False,14102,2330,302848.09,48.7967959359,1.98696989576,201.6844,-1.0452,-0.7438,-0.0028,-0.130198866,-0.696578326,213.806397542,INS_SOLUTION_GOOD
2024/09/04/14:08:33.311627,34730,1725451713,310999203,/novatel/imu,INSPVAA,USB3,0,14.5,FINESTEERING,2330,302848.1,0,False,False,False,True,False,False,False,False,False,False,False,False,False,False,False,False,True,False,False,False,False,False,False,14102,2330,302848.1,48.7967958422,1.98696979415,201.6843,-1.0414,-0.7477,-0.0124,-0.127847419,-0.697978398,213.810638963,INS_SOLUTION_GOOD
2024/09/04/14:08:33.311662,34731,1725451713,310999203,/novatel/imu,INSPVAA,USB3,0,14.5,FINESTEERING,2330,302848.11,0,False,False,False,True,False,False,False,False,False,False,False,False,False,False,False,False,True,False,False,False,False,False,False,14102,2330,302848.11,48.796795748,1.98696969227,201.6842,-1.0428,-0.7486,-0.0085,-0.123395909,-0.690827461,213.808030155,INS_SOLUTION_GOOD
2024/09/04/14:08:33.320519,34732,1725451713,319495513,/novatel/imu,INSPVAA,USB3,0,14.5,FINESTEERING,2330,302848.12,0,False,False,False,True,False,False,False,False,False,False,False,False,False,False,False,False,True,False,False,False,False,False,False,14102,2330,302848.12,48.7967956545,1.98696958953,201.6842,-1.0392,-0.7498,-0.0052,-0.131618422,-0.684768273,213.800603791,INS_SOLUTION_GOOD
2024/09/04/14:08:33.328627,34733,1725451713,328373267,/novatel/imu,INSPVAA,USB3,0,14.5,FINESTEERING,2330,302848.13,0,False,False,False,True,False,False,False,False,False,False,False,False,False,False,False,False,True,False,False,False,False,False,False,14102,2330,302848.13,48.7967955601,1.98696948847,201.6841,-1.0418,-0.7539,-0.0083,-0.138530402,-0.684383823,213.799637169,INS_SOLUTION_GOOD
2024/09/04/14:08:33.341531,34734,1725451713,341011076,/novatel/imu,INSPVAA,USB3,0,14.5,FINESTEERING,2330,302848.14,0,False,False,False,True,False,False,False,False,False,False,False,False,False,False,False,False,True,False,False,False,False,False,False,14102,2330,302848.14,48.7967954656,1.9869693882,201.6838,-1.0413,-0.7535,-0.0227,-0.135659623,-0.68609962,213.79926531,INS_SOLUTION_GOOD
2024/09/04/14:08:33.361385,34735,1725451713,360904026,/novatel/imu,INSPVAA,USB3,0,14.5,FINESTEERING,2330,302848.15,0,False,False,False,True,False,False,False,False,False,False,False,False,False,False,False,False,True,False,False,False,False,False,False,14102,2330,302848.15,48.7967953703,1.98696928867,201.6835,-1.0444,-0.7488,-0.0193,-0.124147095,-0.679661656,213.7952511,INS_SOLUTION_GOOD
2024/09/04/14:08:33.363969,34736,1725451713,363378653,/novatel/imu,INSPVAA,USB3,0,14.5,FINESTEERING,2330,302848.16,0,False,False,False,True,False,False,False,False,False,False,False,False,False,False,False,False,True,False,False,False,False,False,False,14102,2330,302848.16,48.7967952756,1.98696918738,201.6833,-1.0426,-0.7532,-0.0152,-0.124383178,-0.672516034,213.795438438,INS_SOLUTION_GOOD
2024/09/04/14:08:33.379241,34737,1725451713,378748972,/novatel/imu,INSPVAA,USB3,0,14.5,FINESTEERING,2330,302848.17,0,False,False,False,True,False,False,False,False,False,False,False,False,False,False,False,False,True,False,False,False,False,False,False,14102,2330,302848.17,48.7967951813,1.98696908678,201.6831,-1.0402,-0.7531,-0.0154,-0.123538357,-0.672712953,213.792683959,INS_SOLUTION_GOOD
2024/09/04/14:08:33.380026,34738,1725451713,379722191,/novatel/imu,INSPVAA,USB3,0,14.5,FINESTEERING,2330,302848.18,0,False,False,False,True,False,False,False,False,False,False,False,False,False,False,False,False,True,False,False,False,False,False,False,14102,2330,302848.18,48.7967950864,1.98696898535,201.6829,-1.0427,-0.7566,-0.0195,-0.120462742,-0.662745614,213.791294307,INS_SOLUTION_GOOD
2024/09/04/14:08:33.391056,34739,1725451713,390397304,/novatel/imu,INSPVAA,USB3,0,14.5,FINESTEERING,2330,302848.19,0,False,False,False,True,False,False,False,False,False,False,False,False,False,False,False,False,True,False,False,False,False,False,False,14102,2330,302848.19,48.7967949905,1.98696888496,201.6827,-1.0519,-0.7538,-0.0164,-0.108732963,-0.653328574,213.786436066,INS_SOLUTION_GOOD
2024/09/04/14:08:33.407819,34740,1725451713,407407573,/novatel/imu,INSPVAA,USB3,0,14.5,FINESTEERING,2330,302848.2,0,False,False,False,True,False,False,False,False,False,False,False,False,False,False,False,False,True,False,False,False,False,False,False,14102,2330,302848.2,48.7967948963,1.98696878433,201.6826,-1.0454,-0.7527,-0.0038,-0.109985567,-0.657183733,213.784664923,INS_SOLUTION_GOOD
2024/09/04/14:08:33.413542,34741,1725451713,412378501,/novatel/imu,INSPVAA,USB3,0,14.5,FINESTEERING,2330,302848.21,0,False,False,False,True,False,False,False,False,False,False,False,False,False,False,False,False,True,False,False,False,False,False,False,14102,2330,302848.21,48.7967948016,1.98696868365,201.6825,-1.046,-0.752,-0.002,-0.109753903,-0.657301912,213.782941879,INS_SOLUTION_GOOD
2024/09/04/14:08:33.426809,34742,1725451713,420476200,/novatel/imu,INSPVAA,USB3,0,14.5,FINESTEERING,2330,302848.22,0,False,False,False,True,False,False,False,False,False,False,False,False,False,False,False,False,True,False,False,False,False,False,False,14102,2330,302848.22,48.7967947066,1.98696858246,201.6823,-1.0465,-0.7541,-0.0103,-0.109375468,-0.652386947,213.782366464,INS_SOLUTION_GOOD
2024/09/04/14:08:33.432328,34743,1725451713,431308976,/novatel/imu,INSPVAA,USB3,0,14.5,FINESTEERING,2330,302848.23,0,False,False,False,True,False,False,False,False,False,False,False,False,False,False,False,False,True,False,False,False,False,False,False,14102,2330,302848.23,48.7967946114,1.98696848125,201.6822,-1.0486,-0.7541,-0.004,-0.111847374,-0.646435771,213.780082647,INS_SOLUTION_GOOD
2024/09/04/14:08:33.440044,34744,1725451713,439500683,/novatel/imu,INSPVAA,USB3,0,14.5,FINESTEERING,2330,302848.24,0,False,False,False,True,False,False,False,False,False,False,False,False,False,False,False,False,True,False,False,False,False,False,False,14102,2330,302848.24,48.796794516,1.9869683796,201.6821,-1.0518,-0.7573,0.0039,-0.11528689,-0.641607491,213.777870822,INS_SOLUTION_GOOD
2024/09/04/14:08:33.460834,34745,1725451713,458585228,/novatel/imu,INSPVAA,USB3,0,14.5,FINESTEERING,2330,302848.25,0,False,False,False,True,False,False,False,False,False,False,False,False,False,False,False,False,True,False,False,False,False,False,False,14102,2330,302848.25,48.7967944209,1.98696828005,201.682,-1.0521,-0.7487,0.0006,-0.114301024,-0.647733712,213.777559534,INS_SOLUTION_GOOD
2024/09/04/14:08:33.462497,34746,1725451713,461492442,/novatel/imu,INSPVAA,USB3,0,14.5,FINESTEERING,2330,302848.26,0,False,False,False,True,False,False,False,False,False,False,False,False,False,False,False,False,True,False,False,False,False,False,False,14102,2330,302848.26,48.7967943256,1.98696817933,201.682,-1.0514,-0.7512,0.002,-0.114640854,-0.646434689,213.774927436,INS_SOLUTION_GOOD
2024/09/04/14:08:33.476073,34747,1725451713,475580958,/novatel/imu,INSPVAA,USB3,0,14.5,FINESTEERING,2330,302848.27,0,False,False,False,True,False,False,False,False,False,False,False,False,False,False,False,False,True,False,False,False,False,False,False,14102,2330,302848.27,48.7967942292,1.98696807943,201.6819,-1.0581,-0.7476,0.0024,-0.107528389,-0.640463793,213.773862851,INS_SOLUTION_GOOD
2024/09/04/14:08:33.479760,34748,1725451713,479398464,/novatel/imu,INSPVAA,USB3,0,14.5,FINESTEERING,2330,302848.28,0,False,False,False,True,False,False,False,False,False,False,False,False,False,False,False,False,True,False,False,False,False,False,False,14102,2330,302848.28,48.796794134,1.98696797985,201.6819,-1.0557,-0.7473,0.0041,-0.105432623,-0.652244512,213.774266704,INS_SOLUTION_GOOD
2024/09/04/14:08:33.491506,34749,1725451713,490501535,/novatel/imu,INSPVAA,USB3,0,14.5,FINESTEERING,2330,302848.29,0,False,False,False,True,False,False,False,False,False,False,False,False,False,False,False,False,True,False,False,False,False,False,False,14102,2330,302848.29,48.796794038,1.98696787972,201.6819,-1.0569,-0.7471,0.0022,-0.102254495,-0.648327434,213.773760155,INS_SOLUTION_GOOD
2024/09/04/14:08:33.505790,34750,1725451713,505462262,/novatel/imu,INSPVAA,USB3,0,14.5,FINESTEERING,2330,302848.3,0,False,False,False,True,False,False,False,False,False,False,False,False,False,False,False,False,True,False,False,False,False,False,False,14102,2330,302848.3,48.7967939414,1.98696777894,201.6818,-1.0606,-0.7508,0.0029,-0.098878541,-0.640211143,213.774747823,INS_SOLUTION_GOOD
2024/09/04/14:08:33.511423,34751,1725451713,509815392,/novatel/imu,INSPVAA,USB3,0,14.5,FINESTEERING,2330,302848.31,0,False,False,False,True,False,False,False,False,False,False,False,False,False,False,False,False,True,False,False,False,False,False,False,14102,2330,302848.31,48.7967938451,1.98696767847,201.6818,-1.0652,-0.7499,0.0051,-0.103774704,-0.64399099,213.772916062,INS_SOLUTION_GOOD
2024/09/04/14:08:33.518801,34752,1725451713,518472693,/novatel/imu,INSPVAA,USB3,0,14.5,FINESTEERING,2330,302848.32,0,False,False,False,True,False,False,False,False,False,False,False,False,False,False,False,False,True,False,False,False,False,False,False,14102,2330,302848.32,48.7967937493,1.98696757842,201.6818,-1.0618,-0.7503,0.0009,-0.102643034,-0.654613783,213.773097155,INS_SOLUTION_GOOD
2024/09/04/14:08:33.531498,34753,1725451713,530864882,/novatel/imu,INSPVAA,USB3,0,14.5,FINESTEERING,2330,302848.33,0,False,False,False,True,False,False,False,False,False,False,False,False,False,False,False,False,True,False,False,False,False,False,False,14102,2330,302848.33,48.796793653,1.98696747872,201.6817,-1.0607,-0.7459,0.0031,-0.100076485,-0.654063848,213.774019354,INS_SOLUTION_GOOD
2024/09/04/14:08:33.542946,34754,1725451713,542674501,/novatel/imu,INSPVAA,USB3,0,10.5,FINESTEERING,2330,302848.34,0,False,False,False,True,False,False,False,False,False,False,False,False,False,False,False,False,True,False,False,False,False,False,False,14102,2330,302848.34,48.7967935565,1.98696737853,201.6817,-1.0613,-0.7483,0.0009,-0.094875422,-0.652471223,213.773250577,INS_SOLUTION_GOOD
2024/09/04/14:08:33.558483,34755,1725451713,558110003,/novatel/imu,INSPVAA,USB3,0,10.5,FINESTEERING,2330,302848.35,0,False,False,False,True,False,False,False,False,False,False,False,False,False,False,False,False,True,False,False,False,False,False,False,14102,2330,302848.35,48.7967934604,1.9869672776,201.6817,-1.0617,-0.7503,0.0106,-0.103798885,-0.654873203,213.77480913,INS_SOLUTION_GOOD
2024/09/04/14:08:33.563409,34756,1725451713,561934288,/novatel/imu,INSPVAA,USB3,0,10.5,FINESTEERING,2330,302848.36,0,False,False,False,True,False,False,False,False,False,False,False,False,False,False,False,False,True,False,False,False,False,False,False,14102,2330,302848.36,48.796793364,1.98696717597,201.6817,-1.0624,-0.7565,0.0068,-0.109971814,-0.65413753,213.774803303,INS_SOLUTION_GOOD
2024/09/04/14:08:33.583213,34757,1725451713,568615061,/novatel/imu,INSPVAA,USB3,0,10.5,FINESTEERING,2330,302848.37,0,False,False,False,True,False,False,False,False,False,False,False,False,False,False,False,False,True,False,False,False,False,False,False,14102,2330,302848.37,48.7967932678,1.98696707548,201.6816,-1.0633,-0.7544,-0.0033,-0.112954866,-0.661078663,213.776247246,INS_SOLUTION_GOOD
2024/09/04/14:08:33.583324,34758,1725451713,578988516,/novatel/imu,INSPVAA,USB3,0,10.5,FINESTEERING,2330,302848.38,0,False,False,False,True,False,False,False,False,False,False,False,False,False,False,False,False,True,False,False,False,False,False,False,14102,2330,302848.38,48.7967931711,1.98696697415,201.6815,-1.0644,-0.7569,-0.006,-0.114300884,-0.658600352,213.775029065,INS_SOLUTION_GOOD
2024/09/04/14:08:33.589222,34759,1725451713,588781957,/novatel/imu,INSPVAA,USB3,0,10.5,FINESTEERING,2330,302848.39,0,False,False,False,True,False,False,False,False,False,False,False,False,False,False,False,False,True,False,False,False,False,False,False,14102,2330,302848.39,48.7967930745,1.98696687359,201.6814,-1.0633,-0.7539,-0.0027,-0.112345759,-0.658429231,213.775432255,INS_SOLUTION_GOOD
2024/09/04/14:08:33.608010,34760,1725451713,605041688,/novatel/imu,INSPVAA,USB3,0,10.5,FINESTEERING,2330,302848.4,0,False,False,False,True,False,False,False,False,False,False,False,False,False,False,False,False,True,False,False,False,False,False,False,14102,2330,302848.4,48.7967929778,1.98696677244,201.6814,-1.0649,-0.7559,-0.0025,-0.113188844,-0.660093788,213.774978364,INS_SOLUTION_GOOD
2024/09/04/14:08:33.609539,34761,1725451713,609010325,/novatel/imu,INSPVAA,USB3,0,10.5,FINESTEERING,2330,302848.41,0,False,False,False,True,False,False,False,False,False,False,False,False,False,False,False,False,True,False,False,False,False,False,False,14102,2330,302848.41,48.7967928813,1.98696667074,201.6811,-1.0638,-0.7597,-0.0139,-0.114759381,-0.66283084,213.775961227,INS_SOLUTION_GOOD
2024/09/04/14:08:33.619469,34762,1725451713,618976180,/novatel/imu,INSPVAA,USB3,0,10.5,FINESTEERING,2330,302848.42,0,False,False,False,True,False,False,False,False,False,False,False,False,False,False,False,False,True,False,False,False,False,False,False,14102,2330,302848.42,48.796792784,1.98696656879,201.681,-1.0673,-0.7626,-0.0134,-0.109543431,-0.654637239,213.777033056,INS_SOLUTION_GOOD
2024/09/04/14:08:33.642210,34763,1725451713,635140336,/novatel/imu,INSPVAA,USB3,0,10.5,FINESTEERING,2330,302848.43,0,False,False,False,True,False,False,False,False,False,False,False,False,False,False,False,False,True,False,False,False,False,False,False,14102,2330,302848.43,48.7967926867,1.98696646657,201.6809,-1.0702,-0.7651,-0.0072,-0.105983279,-0.649504075,213.7739356,INS_SOLUTION_GOOD
2024/09/04/14:08:33.642215,34764,1725451713,638951698,/novatel/imu,INSPVAA,USB3,0,10.5,FINESTEERING,2330,302848.44,0,False,False,False,True,False,False,False,False,False,False,False,False,False,False,False,False,True,False,False,False,False,False,False,14102,2330,302848.44,48.79679259,1.9869663645,201.6808,-1.0695,-0.7663,-0.0017,-0.103369951,-0.656453452,213.773188728,INS_SOLUTION_GOOD
2024/09/04/14:08:33.659041,34765,1725451713,658100158,/novatel/imu,INSPVAA,USB3,0,10.5,FINESTEERING,2330,302848.45,0,False,False,False,True,False,False,False,False,False,False,False,False,False,False,False,False,True,False,False,False,False,False,False,14102,2330,302848.45,48.7967924935,1.98696626284,201.6806,-1.0668,-0.7636,-0.0095,-0.099829462,-0.663144323,213.773067912,INS_SOLUTION_GOOD
2024/09/04/14:08:33.671939,34766,1725451713,662677217,/novatel/imu,INSPVAA,USB3,0,10.5,FINESTEERING,2330,302848.46,0,False,False,False,True,False,False,False,False,False,False,False,False,False,False,False,False,True,False,False,False,False,False,False,14102,2330,302848.46,48.796792396,1.98696615978,201.6804,-1.0697,-0.7684,-0.0091,-0.093594217,-0.655922343,213.773614624,INS_SOLUTION_GOOD
2024/09/04/14:08:33.671946,34767,1725451713,671437277,/novatel/imu,INSPVAA,USB3,0,10.5,FINESTEERING,2330,302848.47,0,False,False,False,True,False,False,False,False,False,False,False,False,False,False,False,False,True,False,False,False,False,False,False,14102,2330,302848.47,48.7967922981,1.98696605626,201.6804,-1.0749,-0.771,-0.0041,-0.092144913,-0.645511982,213.770476657,INS_SOLUTION_GOOD
2024/09/04/14:08:33.683830,34768,1725451713,683433544,/novatel/imu,INSPVAA,USB3,0,10.5,FINESTEERING,2330,302848.48,0,False,False,False,True,False,False,False,False,False,False,False,False,False,False,False,False,True,False,False,False,False,False,False,14102,2330,302848.48,48.7967922015,1.98696595362,201.6803,-1.0718,-0.7728,0.0005,-0.086458788,-0.659666144,213.770216852,INS_SOLUTION_GOOD
2024/09/04/14:08:33.691241,34769,1725451713,690739780,/novatel/imu,INSPVAA,USB3,0,10.5,FINESTEERING,2330,302848.49,0,False,False,False,True,False,False,False,False,False,False,False,False,False,False,False,False,True,False,False,False,False,False,False,14102,2330,302848.49,48.7967921042,1.98696585073,201.6801,-1.0722,-0.7719,-0.0087,-0.078203489,-0.661376062,213.767861308,INS_SOLUTION_GOOD
2024/09/04/14:08:33.712067,34770,1725451713,710906047,/novatel/imu,INSPVAA,USB3,0,10.5,FINESTEERING,2330,302848.5,0,False,False,False,True,False,False,False,False,False,False,False,False,False,False,False,False,True,False,False,False,False,False,False,14102,2330,302848.5,48.7967920062,1.98696574793,201.6799,-1.0762,-0.771,-0.0119,-0.06366877,-0.657600597,213.76446039,INS_SOLUTION_GOOD
2024/09/04/14:08:33.715335,34771,1725451713,713717835,/novatel/imu,INSPVAA,USB3,0,10.5,FINESTEERING,2330,302848.51,0,False,False,False,True,False,False,False,False,False,False,False,False,False,False,False,False,True,False,False,False,False,False,False,14102,2330,302848.51,48.7967919084,1.98696564456,201.6799,-1.0775,-0.7713,-0.0032,-0.056742111,-0.655155725,213.76556612,INS_SOLUTION_GOOD
2024/09/04/14:08:33.720112,34772,1725451713,719454014,/novatel/imu,INSPVAA,USB3,0,10.5,FINESTEERING,2330,302848.52,0,False,False,False,True,False,False,False,False,False,False,False,False,False,False,False,False,True,False,False,False,False,False,False,14102,2330,302848.52,48.7967918111,1.98696554084,201.6799,-1.0761,-0.7738,0.0043,-0.054061155,-0.658849759,213.763267799,INS_SOLUTION_GOOD
2024/09/04/14:08:33.728480,34773,1725451713,728182714,/novatel/imu,INSPVAA,USB3,0,10.5,FINESTEERING,2330,302848.53,0,False,False,False,True,False,False,False,False,False,False,False,False,False,False,False,False,True,False,False,False,False,False,False,14102,2330,302848.53,48.7967917138,1.98696543716,201.6798,-1.0751,-0.7747,0.001,-0.051137851,-0.663763405,213.764500497,INS_SOLUTION_GOOD
2024/09/04/14:08:33.760632,34774,1725451713,743724485,/novatel/imu,INSPVAA,USB3,0,10.5,FINESTEERING,2330,302848.54,0,False,False,False,True,False,False,False,False,False,False,False,False,False,False,False,False,True,False,False,False,False,False,False,14102,2330,302848.54,48.7967916158,1.98696533397,201.6796,-1.078,-0.7739,-0.008,-0.040032707,-0.665053569,213.763308128,INS_SOLUTION_GOOD
2024/09/04/14:08:33.760646,34775,1725451713,757678967,/novatel/imu,INSPVAA,USB3,0,10.5,FINESTEERING,2330,302848.55,0,False,False,False,True,False,False,False,False,False,False,False,False,False,False,False,False,True,False,False,False,False,False,False,14102,2330,302848.55,48.7967915177,1.98696522926,201.6796,-1.0797,-0.7781,0.0046,-0.036489572,-0.656971567,213.759959967,INS_SOLUTION_GOOD
2024/09/04/14:08:33.763754,34776,1725451713,763199221,/novatel/imu,INSPVAA,USB3,0,10.5,FINESTEERING,2330,302848.56,0,False,False,False,True,False,False,False,False,False,False,False,False,False,False,False,False,True,False,False,False,False,False,False,14102,2330,302848.56,48.7967914201,1.98696512433,201.6796,-1.0803,-0.7796,0.0086,-0.045483257,-0.658908453,213.760236816,INS_SOLUTION_GOOD
2024/09/04/14:08:33.770022,34777,1725451713,769184639,/novatel/imu,INSPVAA,USB3,0,10.5,FINESTEERING,2330,302848.57,0,False,False,False,True,False,False,False,False,False,False,False,False,False,False,False,False,True,False,False,False,False,False,False,14102,2330,302848.57,48.7967913223,1.98696502013,201.6796,-1.0813,-0.7804,0.0044,-0.044449016,-0.665172123,213.760740365,INS_SOLUTION_GOOD
2024/09/04/14:08:33.782589,34778,1725451713,779637087,/novatel/imu,INSPVAA,USB3,0,10.5,FINESTEERING,2330,302848.58,0,False,False,False,True,False,False,False,False,False,False,False,False,False,False,False,False,True,False,False,False,False,False,False,14102,2330,302848.58,48.7967912242,1.98696491678,201.6794,-1.0808,-0.7756,-0.0054,-0.037343321,-0.669420171,213.760886855,INS_SOLUTION_GOOD
2024/09/04/14:08:33.789668,34779,1725451713,788500018,/novatel/imu,INSPVAA,USB3,0,10.5,FINESTEERING,2330,302848.59,0,False,False,False,True,False,False,False,False,False,False,False,False,False,False,False,False,True,False,False,False,False,False,False,14102,2330,302848.59,48.7967911251,1.98696481332,201.6794,-1.0867,-0.7748,0.0025,-0.022684029,-0.664276414,213.759096588,INS_SOLUTION_GOOD
2024/09/04/14:08:33.808865,34780,1725451713,807754092,/novatel/imu,INSPVAA,USB3,0,10.5,FINESTEERING,2330,302848.6,0,False,False,False,True,False,False,False,False,False,False,False,False,False,False,False,False,True,False,False,False,False,False,False,14102,2330,302848.6,48.7967910266,1.98696470979,201.6794,-1.0873,-0.7737,0.0059,-0.016609972,-0.668187734,213.758763025,INS_SOLUTION_GOOD
2024/09/04/14:08:33.811437,34781,1725451713,809489282,/novatel/imu,INSPVAA,USB3,0,10.5,FINESTEERING,2330,302848.61,0,False,False,False,True,False,False,False,False,False,False,False,False,False,False,False,False,True,False,False,False,False,False,False,14102,2330,302848.61,48.796790928,1.98696460514,201.6795,-1.0894,-0.7777,0.0111,-0.018122469,-0.667813346,213.758320483,INS_SOLUTION_GOOD
2024/09/04/14:08:33.821694,34782,1725451713,818482079,/novatel/imu,INSPVAA,USB3,0,10.5,FINESTEERING,2330,302848.62,0,False,False,False,True,False,False,False,False,False,False,False,False,False,False,False,False,True,False,False,False,False,False,False,14102,2330,302848.62,48.7967908288,1.98696449999,201.6794,-1.0931,-0.7818,0.0027,-0.018807479,-0.663306205,213.759727994,INS_SOLUTION_GOOD
2024/09/04/14:08:33.831549,34783,1725451713,830996610,/novatel/imu,INSPVAA,USB3,0,10.5,FINESTEERING,2330,302848.63,0,False,False,False,True,False,False,False,False,False,False,False,False,False,False,False,False,True,False,False,False,False,False,False,14102,2330,302848.63,48.7967907296,1.98696439672,201.6794,-1.0951,-0.7774,-0.0002,-0.008202701,-0.670135282,213.757699954,INS_SOLUTION_GOOD
2024/09/04/14:08:33.863364,34784,1725451713,844150583,/novatel/imu,INSPVAA,USB3,0,10.5,FINESTEERING,2330,302848.64,0,False,False,False,True,False,False,False,False,False,False,False,False,False,False,False,False,True,False,False,False,False,False,False,14102,2330,302848.64,48.7967906304,1.98696429356,201.6793,-1.0934,-0.7751,0.0032,0.006684608,-0.67378916,213.757840517,INS_SOLUTION_GOOD
2024/09/04/14:08:33.863414,34785,1725451713,855276006,/novatel/imu,INSPVAA,USB3,0,10.5,FINESTEERING,2330,302848.65,0,False,False,False,True,False,False,False,False,False,False,False,False,False,False,False,False,True,False,False,False,False,False,False,14102,2330,302848.65,48.796790531,1.98696418887,201.6794,-1.0942,-0.7787,0.007,0.011937731,-0.669508775,213.758320355,INS_SOLUTION_GOOD
2024/09/04/14:08:33.863446,34786,1725451713,861629191,/novatel/imu,INSPVAA,USB3,0,10.5,FINESTEERING,2330,302848.66,0,False,False,False,True,False,False,False,False,False,False,False,False,False,False,False,False,True,False,False,False,False,False,False,14102,2330,302848.66,48.7967904309,1.98696408344,201.6793,-1.1012,-0.7835,0.0072,0.013892039,-0.663472981,213.756083469,INS_SOLUTION_GOOD
2024/09/04/14:08:33.893062,34787,1725451713,871078944,/novatel/imu,INSPVAA,USB3,0,10.5,FINESTEERING,2330,302848.67,0,False,False,False,True,False,False,False,False,False,False,False,False,False,False,False,False,True,False,False,False,False,False,False,14102,2330,302848.67,48.7967903318,1.98696397893,201.6793,-1.0992,-0.7819,0.0067,0.013449635,-0.671827808,213.757174126,INS_SOLUTION_GOOD
2024/09/04/14:08:33.893088,34788,1725451713,881311577,/novatel/imu,INSPVAA,USB3,0,10.5,FINESTEERING,2330,302848.68,0,False,False,False,True,False,False,False,False,False,False,False,False,False,False,False,False,True,False,False,False,False,False,False,14102,2330,302848.68,48.796790232,1.98696387506,201.6793,-1.1013,-0.7786,0.006,0.019707587,-0.676464866,213.757318378,INS_SOLUTION_GOOD
2024/09/04/14:08:33.893111,34789,1725451713,891299310,/novatel/imu,INSPVAA,USB3,0,10.5,FINESTEERING,2330,302848.69,0,False,False,False,True,False,False,False,False,False,False,False,False,False,False,False,False,True,False,False,False,False,False,False,14102,2330,302848.69,48.7967901321,1.9869637695,201.6793,-1.1022,-0.7847,0.0021,0.021023826,-0.676057416,213.756407458,INS_SOLUTION_GOOD
2024/09/04/14:08:33.908206,34790,1725451713,907765838,/novatel/imu,INSPVAA,USB3,0,10.5,FINESTEERING,2330,302848.7,0,False,False,False,True,False,False,False,False,False,False,False,False,False,False,False,False,True,False,False,False,False,False,False,14102,2330,302848.7,48.7967900321,1.98696366447,201.6793,-1.1035,-0.7854,0.0027,0.022661217,-0.678559689,213.753904662,INS_SOLUTION_GOOD
2024/09/04/14:08:33.913406,34791,1725451713,912777755,/novatel/imu,INSPVAA,USB3,0,10.5,FINESTEERING,2330,302848.71,0,False,False,False,True,False,False,False,False,False,False,False,False,False,False,False,False,True,False,False,False,False,False,False,14102,2330,302848.71,48.7967899319,1.98696355912,201.6792,-1.1054,-0.7875,0.0013,0.025995612,-0.681270328,213.751790921,INS_SOLUTION_GOOD
2024/09/04/14:08:33.921299,34792,1725451713,918936090,/novatel/imu,INSPVAA,USB3,0,10.5,FINESTEERING,2330,302848.72,0,False,False,False,True,False,False,False,False,False,False,False,False,False,False,False,False,True,False,False,False,False,False,False,14102,2330,302848.72,48.7967898318,1.98696345371,201.6792,-1.1044,-0.7871,0.002,0.026413826,-0.682349903,213.753914615,INS_SOLUTION_GOOD
2024/09/04/14:08:33.948381,34793,1725451713,929388325,/novatel/imu,INSPVAA,USB3,0,10.5,FINESTEERING,2330,302848.73,0,False,False,False,True,False,False,False,False,False,False,False,False,False,False,False,False,True,False,False,False,False,False,False,14102,2330,302848.73,48.7967897314,1.9869633468,201.6792,-1.1076,-0.7929,0.0036,0.017937982,-0.679417324,213.745863278,INS_SOLUTION_GOOD
2024/09/04/14:08:33.948391,34794,1725451713,938878324,/novatel/imu,INSPVAA,USB3,0,10.5,FINESTEERING,2330,302848.74,0,False,False,False,True,False,False,False,False,False,False,False,False,False,False,False,False,True,False,False,False,False,False,False,14102,2330,302848.74,48.7967896307,1.98696324109,201.679,-1.1112,-0.791,-0.0066,0.015708893,-0.680362229,213.749859192,INS_SOLUTION_GOOD
2024/09/04/14:08:33.956316,34795,1725451713,955466548,/novatel/imu,INSPVAA,USB3,0,10.5,FINESTEERING,2330,302848.75,0,False,False,False,True,False,False,False,False,False,False,False,False,False,False,False,False,True,False,False,False,False,False,False,14102,2330,302848.75,48.7967895301,1.98696313576,201.6789,-1.1121,-0.7894,-0.0051,0.017052231,-0.687670961,213.747869584,INS_SOLUTION_GOOD
2024/09/04/14:08:33.960097,34796,1725451713,959328153,/novatel/imu,INSPVAA,USB3,0,10.5,FINESTEERING,2330,302848.76,0,False,False,False,True,False,False,False,False,False,False,False,False,False,False,False,False,True,False,False,False,False,False,False,14102,2330,302848.76,48.7967894289,1.98696302929,201.6788,-1.1151,-0.7918,-0.0038,0.012542615,-0.682520643,213.746461541,INS_SOLUTION_GOOD
2024/09/04/14:08:33.972996,34797,1725451713,972099339,/novatel/imu,INSPVAA,USB3,0,10.5,FINESTEERING,2330,302848.77,0,False,False,False,True,False,False,False,False,False,False,False,False,False,False,False,False,True,False,False,False,False,False,False,14102,2330,302848.77,48.7967893281,1.9869629238,201.6787,-1.1142,-0.7898,-0.0067,0.010585015,-0.688664955,213.745846202,INS_SOLUTION_GOOD
2024/09/04/14:08:33.981459,34798,1725451713,981057227,/novatel/imu,INSPVAA,USB3,0,10.5,FINESTEERING,2330,302848.78,0,False,False,False,True,False,False,False,False,False,False,False,False,False,False,False,False,True,False,False,False,False,False,False,14102,2330,302848.78,48.7967892268,1.98696281776,201.6786,-1.1169,-0.7909,-0.001,0.008661104,-0.688486418,213.745594922,INS_SOLUTION_GOOD
2024/09/04/14:08:34.003926,34799,1725451714,1104291,/novatel/imu,INSPVAA,USB3,0,10.5,FINESTEERING,2330,302848.79,0,False,False,False,True,False,False,False,False,False,False,False,False,False,False,False,False,True,False,False,False,False,False,False,14102,2330,302848.79,48.7967891251,1.98696271121,201.6785,-1.1207,-0.7921,-0.0023,0.000321269,-0.684762461,213.746748503,INS_SOLUTION_GOOD
2024/09/04/14:08:34.026542,34800,1725451714,12622416,/novatel/imu,INSPVAA,USB3,0,10.5,FINESTEERING,2330,302848.8,0,False,False,False,True,False,False,False,False,False,False,False,False,False,False,False,False,True,False,False,False,False,False,False,14102,2330,302848.8,48.7967890236,1.98696260595,201.6784,-1.1228,-0.7897,-0.0042,-0.000557864,-0.693524094,213.746678618,INS_SOLUTION_GOOD
2024/09/04/14:08:34.026555,34801,1725451714,12622416,/novatel/imu,INSPVAA,USB3,0,10.5,FINESTEERING,2330,302848.81,0,False,False,False,True,False,False,False,False,False,False,False,False,False,False,False,False,True,False,False,False,False,False,False,14102,2330,302848.81,48.7967889219,1.98696250038,201.6783,-1.1224,-0.7899,-0.0051,0.00082061,-0.696670698,213.748415298,INS_SOLUTION_GOOD
2024/09/04/14:08:34.026559,34802,1725451714,24213841,/novatel/imu,INSPVAA,USB3,0,10.5,FINESTEERING,2330,302848.82,0,False,False,False,True,False,False,False,False,False,False,False,False,False,False,False,False,True,False,False,False,False,False,False,14102,2330,302848.82,48.7967888197,1.98696239452,201.6783,-1.1252,-0.7898,0.0031,-0.00044026,-0.693300186,213.747315751,INS_SOLUTION_GOOD
2024/09/04/14:08:34.037503,34803,1725451714,32030605,/novatel/imu,INSPVAA,USB3,0,10.5,FINESTEERING,2330,302848.83,0,False,False,False,True,False,False,False,False,False,False,False,False,False,False,False,False,True,False,False,False,False,False,False,14102,2330,302848.83,48.7967887177,1.98696228831,201.6783,-1.1265,-0.7921,0.0063,-0.004988069,-0.697965759,213.747791681,INS_SOLUTION_GOOD
2024/09/04/14:08:34.051368,34804,1725451714,45344531,/novatel/imu,INSPVAA,USB3,0,10.5,FINESTEERING,2330,302848.84,0,False,False,False,True,False,False,False,False,False,False,False,False,False,False,False,False,True,False,False,False,False,False,False,14102,2330,302848.84,48.7967886161,1.98696218306,201.6783,-1.124,-0.7886,0.0089,-0.007424918,-0.707171228,213.750943728,INS_SOLUTION_GOOD
2024/09/04/14:08:34.057655,34805,1725451714,57321385,/novatel/imu,INSPVAA,USB3,0,10.5,FINESTEERING,2330,302848.85,0,False,False,False,True,False,False,False,False,False,False,False,False,False,False,False,False,True,False,False,False,False,False,False,14102,2330,302848.85,48.7967885133,1.98696207704,201.6783,-1.1302,-0.79,0.0095,-0.008051895,-0.704337899,213.749984637,INS_SOLUTION_GOOD
2024/09/04/14:08:34.060637,34806,1725451714,60270812,/novatel/imu,INSPVAA,USB3,0,10.5,FINESTEERING,2330,302848.86,0,False,False,False,True,False,False,False,False,False,False,False,False,False,False,False,False,True,False,False,False,False,False,False,14102,2330,302848.86,48.7967884113,1.98696197088,201.6783,-1.1298,-0.7926,0.0072,-0.013869087,-0.715336514,213.752692808,INS_SOLUTION_GOOD
2024/09/04/14:08:34.072019,34807,1725451714,71371328,/novatel/imu,INSPVAA,USB3,0,10.5,FINESTEERING,2330,302848.87,0,False,False,False,True,False,False,False,False,False,False,False,False,False,False,False,False,True,False,False,False,False,False,False,14102,2330,302848.87,48.7967883089,1.98696186501,201.6784,-1.1291,-0.792,0.0111,-0.015001227,-0.718654839,213.753783301,INS_SOLUTION_GOOD
2024/09/04/14:08:34.081525,34808,1725451714,81121991,/novatel/imu,INSPVAA,USB3,0,10.5,FINESTEERING,2330,302848.88,0,False,False,False,True,False,False,False,False,False,False,False,False,False,False,False,False,True,False,False,False,False,False,False,14102,2330,302848.88,48.7967882065,1.98696175688,201.6784,-1.1287,-0.8014,0.0124,-0.025480692,-0.716082271,213.751622831,INS_SOLUTION_GOOD
2024/09/04/14:08:34.089893,34809,1725451714,89588578,/novatel/imu,INSPVAA,USB3,0,10.5,FINESTEERING,2330,302848.89,0,False,False,False,True,False,False,False,False,False,False,False,False,False,False,False,False,True,False,False,False,False,False,False,14102,2330,302848.89,48.7967881041,1.98696164998,201.6784,-1.1304,-0.8018,0.0097,-0.028309543,-0.722593179,213.752687154,INS_SOLUTION_GOOD
2024/09/04/14:08:34.108793,34810,1725451714,108501113,/novatel/imu,INSPVAA,USB3,0,10.5,FINESTEERING,2330,302848.9,0,False,False,False,True,False,False,False,False,False,False,False,False,False,False,False,False,True,False,False,False,False,False,False,14102,2330,302848.9,48.7967880019,1.98696154281,201.6785,-1.1279,-0.8035,0.0099,-0.029835758,-0.731675947,213.751074221,INS_SOLUTION_GOOD
2024/09/04/14:08:34.117336,34811,1725451714,116946549,/novatel/imu,INSPVAA,USB3,0,10.5,FINESTEERING,2330,302848.91,0,False,False,False,True,False,False,False,False,False,False,False,False,False,False,False,False,True,False,False,False,False,False,False,14102,2330,302848.91,48.7967878995,1.98696143535,201.6785,-1.1284,-0.8039,0.0071,-0.031122419,-0.733120129,213.752316674,INS_SOLUTION_GOOD
2024/09/04/14:08:34.118829,34812,1725451714,118542544,/novatel/imu,INSPVAA,USB3,0,10.5,FINESTEERING,2330,302848.92,0,False,False,False,True,False,False,False,False,False,False,False,False,False,False,False,False,True,False,False,False,False,False,False,14102,2330,302848.92,48.7967877967,1.98696132647,201.6785,-1.1301,-0.8098,0.0056,-0.037324821,-0.731137958,213.74820538,INS_SOLUTION_GOOD
2024/09/04/14:08:34.129117,34813,1725451714,128753871,/novatel/imu,INSPVAA,USB3,0,10.5,FINESTEERING,2330,302848.93,0,False,False,False,True,False,False,False,False,False,False,False,False,False,False,False,False,True,False,False,False,False,False,False,14102,2330,302848.93,48.7967876942,1.98696121756,201.6785,-1.1307,-0.8134,0.0066,-0.044085394,-0.733691895,213.747650995,INS_SOLUTION_GOOD
2024/09/04/14:08:34.139381,34814,1725451714,138716172,/novatel/imu,INSPVAA,USB3,0,10.5,FINESTEERING,2330,302848.94,0,False,False,False,True,False,False,False,False,False,False,False,False,False,False,False,False,True,False,False,False,False,False,False,14102,2330,302848.94,48.7967875915,1.98696110859,201.6785,-1.132,-0.8153,0.0054,-0.047339157,-0.735682804,213.745496472,INS_SOLUTION_GOOD
2024/09/04/14:08:34.155849,34815,1725451714,155591843,/novatel/imu,INSPVAA,USB3,0,10.5,FINESTEERING,2330,302848.95,0,False,False,False,True,False,False,False,False,False,False,False,False,False,False,False,False,True,False,False,False,False,False,False,14102,2330,302848.95,48.7967874889,1.98696100007,201.6784,-1.1314,-0.8139,-0.0004,-0.046958974,-0.738866277,213.744354309,INS_SOLUTION_GOOD
2024/09/04/14:08:34.159867,34816,1725451714,159320264,/novatel/imu,INSPVAA,USB3,0,10.5,FINESTEERING,2330,302848.96,0,False,False,False,True,False,False,False,False,False,False,False,False,False,False,False,False,True,False,False,False,False,False,False,14102,2330,302848.96,48.7967873861,1.98696089085,201.6783,-1.1321,-0.8157,-0.0053,-0.048778981,-0.739333791,213.742504136,INS_SOLUTION_GOOD
2024/09/04/14:08:34.171916,34817,1725451714,171515887,/novatel/imu,INSPVAA,USB3,0,10.5,FINESTEERING,2330,302848.97,0,False,False,False,True,False,False,False,False,False,False,False,False,False,False,False,False,True,False,False,False,False,False,False,14102,2330,302848.97,48.7967872826,1.98696078054,201.6782,-1.1366,-0.8207,-0.0038,-0.050797785,-0.729419042,213.735927931,INS_SOLUTION_GOOD
2024/09/04/14:08:34.181114,34818,1725451714,178736868,/novatel/imu,INSPVAA,USB3,0,10.5,FINESTEERING,2330,302848.98,0,False,False,False,True,False,False,False,False,False,False,False,False,False,False,False,False,True,False,False,False,False,False,False,14102,2330,302848.98,48.7967871796,1.98696067099,201.6782,-1.1364,-0.8213,-0.0024,-0.049641253,-0.732706522,213.734647844,INS_SOLUTION_GOOD
2024/09/04/14:08:34.194997,34819,1725451714,194549010,/novatel/imu,INSPVAA,USB3,0,10.5,FINESTEERING,2330,302848.99,0,False,False,False,True,False,False,False,False,False,False,False,False,False,False,False,False,True,False,False,False,False,False,False,14102,2330,302848.99,48.7967870765,1.98696056128,201.6781,-1.1366,-0.8218,-0.0026,-0.046447514,-0.732450736,213.729323456,INS_SOLUTION_GOOD
2024/09/04/14:08:34.220892,34820,1725451714,220110310,/novatel/imu,INSPVAA,USB3,0,10.5,FINESTEERING,2330,302849.0,0,False,False,False,True,False,False,False,False,False,False,False,False,False,False,False,False,True,False,False,False,False,False,False,14102,2330,302849.0,48.7967869731,1.98696045202,201.6779,-1.1383,-0.8191,-0.01,-0.040112042,-0.733268793,213.723576228,INS_SOLUTION_GOOD
2024/09/04/14:08:34.222872,34821,1725451714,220835208,/novatel/imu,INSPVAA,USB3,0,10.5,FINESTEERING,2330,302849.02,0,False,False,False,True,False,False,False,False,False,False,False,False,False,False,False,False,True,False,False,False,False,False,False,14102,2330,302849.02,48.7967867656,1.98696023214,201.6775,-1.1438,-0.8216,-0.015,-0.02920675,-0.725346498,213.719144985,INS_SOLUTION_GOOD
2024/09/04/14:08:34.232740,34822,1725451714,228805312,/novatel/imu,INSPVAA,USB3,0,10.5,FINESTEERING,2330,302849.03,0,False,False,False,True,False,False,False,False,False,False,False,False,False,False,False,False,True,False,False,False,False,False,False,14102,2330,302849.03,48.7967866611,1.98696012203,201.6774,-1.1498,-0.8218,-0.0089,-0.023001578,-0.718282702,213.71661312,INS_SOLUTION_GOOD
2024/09/04/14:08:34.242866,34823,1725451714,239647322,/novatel/imu,INSPVAA,USB3,0,10.5,FINESTEERING,2330,302849.04,0,False,False,False,True,False,False,False,False,False,False,False,False,False,False,False,False,True,False,False,False,False,False,False,14102,2330,302849.04,48.7967865572,1.98696001217,201.6773,-1.1505,-0.8198,-0.0069,-0.023524547,-0.719356266,213.71787629,INS_SOLUTION_GOOD
2024/09/04/14:08:34.255589,34824,1725451714,255340689,/novatel/imu,INSPVAA,USB3,0,10.5,FINESTEERING,2330,302849.05,0,False,False,False,True,False,False,False,False,False,False,False,False,False,False,False,False,True,False,False,False,False,False,False,14102,2330,302849.05,48.7967864535,1.98695990239,201.6771,-1.1475,-0.8192,-0.008,-0.022541089,-0.721045867,213.717950774,INS_SOLUTION_GOOD
2024/09/04/14:08:34.259886,34825,1725451714,259016239,/novatel/imu,INSPVAA,USB3,0,10.5,FINESTEERING,2330,302849.06,0,False,False,False,True,False,False,False,False,False,False,False,False,False,False,False,False,True,False,False,False,False,False,False,14102,2330,302849.06,48.7967863485,1.98695979233,201.677,-1.1532,-0.819,-0.0047,-0.017320805,-0.708177414,213.71489834,INS_SOLUTION_GOOD
2024/09/04/14:08:34.275410,34826,1725451714,274959048,/novatel/imu,INSPVAA,USB3,0,10.5,FINESTEERING,2330,302849.07,0,False,False,False,True,False,False,False,False,False,False,False,False,False,False,False,False,True,False,False,False,False,False,False,14102,2330,302849.07,48.7967862437,1.98695968161,201.6769,-1.1582,-0.8234,-0.0022,-0.019406893,-0.705789303,213.715790461,INS_SOLUTION_GOOD
2024/09/04/14:08:34.281384,34827,1725451714,281055798,/novatel/imu,INSPVAA,USB3,0,10.5,FINESTEERING,2330,302849.08,0,False,False,False,True,False,False,False,False,False,False,False,False,False,False,False,False,True,False,False,False,False,False,False,14102,2330,302849.08,48.7967861394,1.98695957286,201.6768,-1.1566,-0.8173,-0.0017,-0.016022081,-0.7147734,213.716772375,INS_SOLUTION_GOOD
2024/09/04/14:08:34.298307,34828,1725451714,297912912,/novatel/imu,INSPVAA,USB3,0,10.5,FINESTEERING,2330,302849.09,0,False,False,False,True,False,False,False,False,False,False,False,False,False,False,False,False,True,False,False,False,False,False,False,14102,2330,302849.09,48.7967860349,1.9869594629,201.6768,-1.1546,-0.8181,0.0023,-0.016453011,-0.714612903,213.71777241,INS_SOLUTION_GOOD
2024/09/04/14:08:34.307441,34829,1725451714,307145991,/novatel/imu,INSPVAA,USB3,0,10.5,FINESTEERING,2330,302849.1,0,False,False,False,True,False,False,False,False,False,False,False,False,False,False,False,False,True,False,False,False,False,False,False,14102,2330,302849.1,48.7967859296,1.98695935339,201.6767,-1.1574,-0.8143,0.0006,-0.016405647,-0.702039191,213.71649145,INS_SOLUTION_GOOD
2024/09/04/14:08:34.315821,34830,1725451714,315346546,/novatel/imu,INSPVAA,USB3,0,10.5,FINESTEERING,2330,302849.11,0,False,False,False,True,False,False,False,False,False,False,False,False,False,False,False,False,True,False,False,False,False,False,False,14102,2330,302849.11,48.7967858258,1.98695924181,201.6766,-1.1611,-0.8175,0.0035,-0.018870395,-0.705077829,213.719221377,INS_SOLUTION_GOOD
2024/09/04/14:08:34.325609,34831,1725451714,325208488,/novatel/imu,INSPVAA,USB3,0,10.5,FINESTEERING,2330,302849.12,0,False,False,False,True,False,False,False,False,False,False,False,False,False,False,False,False,True,False,False,False,False,False,False,14102,2330,302849.12,48.7967857222,1.98695912983,201.6765,-1.1604,-0.8206,0.0007,-0.024325143,-0.70795823,213.722879782,INS_SOLUTION_GOOD
2024/09/04/14:08:34.331452,34832,1725451714,330885950,/novatel/imu,INSPVAA,USB3,0,10.5,FINESTEERING,2330,302849.13,0,False,False,False,True,False,False,False,False,False,False,False,False,False,False,False,False,True,False,False,False,False,False,False,14102,2330,302849.13,48.7967856185,1.98695901848,201.6764,-1.1595,-0.8185,0.0007,-0.025683657,-0.707579259,213.722063906,INS_SOLUTION_GOOD
2024/09/04/14:08:34.340905,34833,1725451714,339291714,/novatel/imu,INSPVAA,USB3,0,10.5,FINESTEERING,2330,302849.14,0,False,False,False,True,False,False,False,False,False,False,False,False,False,False,False,False,True,False,False,False,False,False,False,14102,2330,302849.14,48.7967855141,1.98695890768,201.6763,-1.1631,-0.8162,-0.0014,-0.019949002,-0.709337592,213.723779043,INS_SOLUTION_GOOD
2024/09/04/14:08:34.355760,34834,1725451714,355525370,/novatel/imu,INSPVAA,USB3,0,10.5,FINESTEERING,2330,302849.15,0,False,False,False,True,False,False,False,False,False,False,False,False,False,False,False,False,True,False,False,False,False,False,False,14102,2330,302849.15,48.7967854096,1.98695879643,201.6762,-1.1652,-0.8169,0.0046,-0.016831625,-0.709702957,213.724278363,INS_SOLUTION_GOOD
2024/09/04/14:08:34.359580,34835,1725451714,359198808,/novatel/imu,INSPVAA,USB3,0,10.5,FINESTEERING,2330,302849.16,0,False,False,False,True,False,False,False,False,False,False,False,False,False,False,False,False,True,False,False,False,False,False,False,14102,2330,302849.16,48.7967853053,1.98695868371,201.6762,-1.1669,-0.8211,0.0086,-0.029488504,-0.706775591,213.72588885,INS_SOLUTION_GOOD
2024/09/04/14:08:34.369270,34836,1725451714,368955513,/novatel/imu,INSPVAA,USB3,0,10.5,FINESTEERING,2330,302849.17,0,False,False,False,True,False,False,False,False,False,False,False,False,False,False,False,False,True,False,False,False,False,False,False,14102,2330,302849.17,48.7967852011,1.98695857087,201.676,-1.1673,-0.825,0.0032,-0.04182699,-0.708950528,213.732330723,INS_SOLUTION_GOOD
2024/09/04/14:08:34.380865,34837,1725451714,379530525,/novatel/imu,INSPVAA,USB3,0,10.5,FINESTEERING,2330,302849.18,0,False,False,False,True,False,False,False,False,False,False,False,False,False,False,False,False,True,False,False,False,False,False,False,14102,2330,302849.18,48.7967850964,1.98695845955,201.6759,-1.169,-0.8216,-0.0007,-0.041828475,-0.713678334,213.729085259,INS_SOLUTION_GOOD
2024/09/04/14:08:34.389095,34838,1725451714,388807912,/novatel/imu,INSPVAA,USB3,0,10.5,FINESTEERING,2330,302849.19,0,False,False,False,True,False,False,False,False,False,False,False,False,False,False,False,False,True,False,False,False,False,False,False,14102,2330,302849.19,48.7967849913,1.98695834769,201.6758,-1.1716,-0.8234,-0.0001,-0.038265518,-0.714149736,213.731044694,INS_SOLUTION_GOOD
2024/09/04/14:08:34.405577,34839,1725451714,405304413,/novatel/imu,INSPVAA,USB3,0,10.5,FINESTEERING,2330,302849.2,0,False,False,False,True,False,False,False,False,False,False,False,False,False,False,False,False,True,False,False,False,False,False,False,14102,2330,302849.2,48.7967848864,1.98695823504,201.6757,-1.1719,-0.825,0.0032,-0.045126816,-0.71308764,213.73127955,INS_SOLUTION_GOOD
2024/09/04/14:08:34.409736,34840,1725451714,409375668,/novatel/imu,INSPVAA,USB3,0,10.5,FINESTEERING,2330,302849.21,0,False,False,False,True,False,False,False,False,False,False,False,False,False,False,False,False,True,False,False,False,False,False,False,14102,2330,302849.21,48.7967847815,1.98695812207,201.6757,-1.1723,-0.8272,0.0054,-0.054883329,-0.714210782,213.731692939,INS_SOLUTION_GOOD
2024/09/04/14:08:34.422616,34841,1725451714,419371768,/novatel/imu,INSPVAA,USB3,0,10.5,FINESTEERING,2330,302849.22,0,False,False,False,True,False,False,False,False,False,False,False,False,False,False,False,False,True,False,False,False,False,False,False,14102,2330,302849.22,48.7967846762,1.98695800888,201.6756,-1.1758,-0.8307,0.0022,-0.060641562,-0.715391378,213.73319988,INS_SOLUTION_GOOD
2024/09/04/14:08:34.431462,34842,1725451714,428908980,/novatel/imu,INSPVAA,USB3,0,10.5,FINESTEERING,2330,302849.23,0,False,False,False,True,False,False,False,False,False,False,False,False,False,False,False,False,True,False,False,False,False,False,False,14102,2330,302849.23,48.7967845707,1.98695789651,201.6754,-1.1785,-0.8301,-0.0051,-0.05939877,-0.722293905,213.729430853,INS_SOLUTION_GOOD
2024/09/04/14:08:34.440286,34843,1725451714,439651093,/novatel/imu,INSPVAA,USB3,0,10.5,FINESTEERING,2330,302849.24,0,False,False,False,True,False,False,False,False,False,False,False,False,False,False,False,False,True,False,False,False,False,False,False,14102,2330,302849.24,48.7967844649,1.98695778404,201.6752,-1.1798,-0.8296,-0.0066,-0.053469618,-0.724834851,213.729574221,INS_SOLUTION_GOOD
2024/09/04/14:08:34.457250,34844,1725451714,456733707,/novatel/imu,INSPVAA,USB3,0,10.5,FINESTEERING,2330,302849.25,0,False,False,False,True,False,False,False,False,False,False,False,False,False,False,False,False,True,False,False,False,False,False,False,14102,2330,302849.25,48.7967843588,1.98695766956,201.6751,-1.1816,-0.8367,-0.0047,-0.056297503,-0.718084006,213.726316824,INS_SOLUTION_GOOD
2024/09/04/14:08:34.464224,34845,1725451714,463606759,/novatel/imu,INSPVAA,USB3,0,10.5,FINESTEERING,2330,302849.26,0,False,False,False,True,False,False,False,False,False,False,False,False,False,False,False,False,True,False,False,False,False,False,False,14102,2330,302849.26,48.796784253,1.98695755648,201.6749,-1.1805,-0.8349,-0.0014,-0.051364579,-0.720522811,213.724925442,INS_SOLUTION_GOOD
2024/09/04/14:08:34.474921,34846,1725451714,474310307,/novatel/imu,INSPVAA,USB3,0,10.5,FINESTEERING,2330,302849.27,0,False,False,False,True,False,False,False,False,False,False,False,False,False,False,False,False,True,False,False,False,False,False,False,14102,2330,302849.27,48.7967841472,1.98695744287,201.6748,-1.1815,-0.8366,-0.0048,-0.047867025,-0.725485208,213.723360213,INS_SOLUTION_GOOD
2024/09/04/14:08:34.483815,34847,1725451714,483518813,/novatel/imu,INSPVAA,USB3,0,10.5,FINESTEERING,2330,302849.28,0,False,False,False,True,False,False,False,False,False,False,False,False,False,False,False,False,True,False,False,False,False,False,False,14102,2330,302849.28,48.7967840413,1.98695732833,201.6746,-1.1817,-0.8393,-0.0092,-0.050462658,-0.723998766,213.719198808,INS_SOLUTION_GOOD
2024/09/04/14:08:34.493840,34848,1725451714,489369604,/novatel/imu,INSPVAA,USB3,0,12.0,FINESTEERING,2330,302849.29,0,False,False,False,True,False,False,False,False,False,False,False,False,False,False,False,False,True,False,False,False,False,False,False,14102,2330,302849.29,48.7967839349,1.98695721274,201.6744,-1.1855,-0.8451,-0.0089,-0.055012284,-0.718449773,213.716910212,INS_SOLUTION_GOOD
2024/09/04/14:08:34.507381,34849,1725451714,506498038,/novatel/imu,INSPVAA,USB3,0,12.0,FINESTEERING,2330,302849.3,0,False,False,False,True,False,False,False,False,False,False,False,False,False,False,False,False,True,False,False,False,False,False,False,14102,2330,302849.3,48.7967838286,1.98695709729,201.6741,-1.1887,-0.8494,-0.0119,-0.055721607,-0.722378445,213.71173355,INS_SOLUTION_GOOD
2024/09/04/14:08:34.514663,34850,1725451714,511134590,/novatel/imu,INSPVAA,USB3,0,12.0,FINESTEERING,2330,302849.31,0,False,False,False,True,False,False,False,False,False,False,False,False,False,False,False,False,True,False,False,False,False,False,False,14102,2330,302849.31,48.7967837225,1.98695698302,201.6739,-1.1866,-0.8457,-0.008,-0.050162811,-0.729172464,213.709944619,INS_SOLUTION_GOOD
2024/09/04/14:08:34.519675,34851,1725451714,518793456,/novatel/imu,INSPVAA,USB3,0,12.0,FINESTEERING,2330,302849.32,0,False,False,False,True,False,False,False,False,False,False,False,False,False,False,False,False,True,False,False,False,False,False,False,14102,2330,302849.32,48.7967836165,1.98695686655,201.6737,-1.1851,-0.8514,-0.0118,-0.057435094,-0.731113738,213.708409406,INS_SOLUTION_GOOD
2024/09/04/14:08:34.529988,34852,1725451714,529411018,/novatel/imu,INSPVAA,USB3,0,12.0,FINESTEERING,2330,302849.33,0,False,False,False,True,False,False,False,False,False,False,False,False,False,False,False,False,True,False,False,False,False,False,False,14102,2330,302849.33,48.7967835097,1.98695675054,201.6735,-1.1872,-0.8523,-0.0129,-0.056148711,-0.725747158,213.705327874,INS_SOLUTION_GOOD
2024/09/04/14:08:34.539933,34853,1725451714,539549458,/novatel/imu,INSPVAA,USB3,0,12.0,FINESTEERING,2330,302849.34,0,False,False,False,True,False,False,False,False,False,False,False,False,False,False,False,False,True,False,False,False,False,False,False,14102,2330,302849.34,48.7967834034,1.98695663326,201.6732,-1.1894,-0.8573,-0.0112,-0.06750883,-0.727417962,213.699749707,INS_SOLUTION_GOOD
2024/09/04/14:08:34.561742,34854,1725451714,561246072,/novatel/imu,INSPVAA,USB3,0,12.0,FINESTEERING,2330,302849.35,0,False,False,False,True,False,False,False,False,False,False,False,False,False,False,False,False,True,False,False,False,False,False,False,14102,2330,302849.35,48.7967832963,1.98695651718,201.673,-1.1942,-0.8567,-0.0158,-0.064062903,-0.730189628,213.695647212,INS_SOLUTION_GOOD
