%time,field.header.seq,field.header.stamp,field.header.frame_id,field.novatel_msg_header.message_name,field.novatel_msg_header.port,field.novatel_msg_header.sequence_num,field.novatel_msg_header.percent_idle_time,field.novatel_msg_header.gps_time_status,field.novatel_msg_header.gps_week_num,field.novatel_msg_header.gps_seconds,field.novatel_msg_header.receiver_status.original_status_code,field.novatel_msg_header.receiver_status.error_flag,field.novatel_msg_header.receiver_status.temperature_flag,field.novatel_msg_header.receiver_status.voltage_supply_flag,field.novatel_msg_header.receiver_status.antenna_powered,field.novatel_msg_header.receiver_status.antenna_is_open,field.novatel_msg_header.receiver_status.antenna_is_shorted,field.novatel_msg_header.receiver_status.cpu_overload_flag,field.novatel_msg_header.receiver_status.com1_buffer_overrun,field.novatel_msg_header.receiver_status.com2_buffer_overrun,field.novatel_msg_header.receiver_status.com3_buffer_overrun,field.novatel_msg_header.receiver_status.usb_buffer_overrun,field.novatel_msg_header.receiver_status.rf1_agc_flag,field.novatel_msg_header.receiver_status.rf2_agc_flag,field.novatel_msg_header.receiver_status.almanac_flag,field.novatel_msg_header.receiver_status.position_solution_flag,field.novatel_msg_header.receiver_status.position_fixed_flag,field.novatel_msg_header.receiver_status.clock_steering_status_enabled,field.novatel_msg_header.receiver_status.clock_model_flag,field.novatel_msg_header.receiver_status.oemv_external_oscillator_flag,field.novatel_msg_header.receiver_status.software_resource_flag,field.novatel_msg_header.receiver_status.aux1_status_event_flag,field.novatel_msg_header.receiver_status.aux2_status_event_flag,field.novatel_msg_header.receiver_status.aux3_status_event_flag,field.novatel_msg_header.receiver_software_version,field.week,field.seconds,field.latitude,field.longitude,field.height,field.north_velocity,field.east_velocity,field.up_velocity,field.roll,field.pitch,field.azimuth,field.status
1595838625503725504,31449,1595838625501068972,/novatel/imu,INSPVAA,USB3,0,13.0,FINESTEERING,2116,116907.84,16777216,0,0,0,1,0,0,0,0,0,0,0,0,0,0,0,0,1,0,0,0,0,0,0,14102,2116,116907.84,48.7962002301,1.98632665038,201.2563,-0.0001,-0.0008,0.0015,-0.494527137,-0.695735197,214.220799203,INS_SOLUTION_GOOD
1595838625518868185,31450,1595838625518512544,/novatel/imu,INSPVAA,USB3,0,13.0,FINESTEERING,2116,116907.85,16777216,0,0,0,1,0,0,0,0,0,0,0,0,0,0,0,0,1,0,0,0,0,0,0,14102,2116,116907.85,48.7962002301,1.98632665018,201.2563,0.0002,-0.0014,0.0021,-0.49580617,-0.694745674,214.221178065,INS_SOLUTION_GOOD
1595838625521413563,31451,1595838625521115274,/novatel/imu,INSPVAA,USB3,0,13.0,FINESTEERING,2116,116907.86,16777216,0,0,0,1,0,0,0,0,0,0,0,0,0,0,0,0,1,0,0,0,0,0,0,14102,2116,116907.86,48.7962002302,1.98632665021,201.2563,0.001,-0.0011,0.0019,-0.496406678,-0.696146921,214.220857893,INS_SOLUTION_GOOD
1595838625531435847,31452,1595838625531069529,/novatel/imu,INSPVAA,USB3,0,13.0,FINESTEERING,2116,116907.87,16777216,0,0,0,1,0,0,0,0,0,0,0,0,0,0,0,0,1,0,0,0,0,0,0,14102,2116,116907.87,48.7962002302,1.98632665026,201.2563,0.0007,-0.0011,0.0022,-0.495926765,-0.696224479,214.2219875,INS_SOLUTION_GOOD
1595838625540759008,31453,1595838625540460250,/novatel/imu,INSPVAA,USB3,0,13.0,FINESTEERING,2116,116907.88,16777216,0,0,0,1,0,0,0,0,0,0,0,0,0,0,0,0,1,0,0,0,0,0,0,14102,2116,116907.88,48.79620023,1.98632665015,201.2563,0.0002,-0.0014,0.0023,-0.495767575,-0.694336612,214.221443275,INS_SOLUTION_GOOD
1595838625550321027,31454,1595838625549998524,/novatel/imu,INSPVAA,USB3,0,13.0,FINESTEERING,2116,116907.89,16777216,0,0,0,1,0,0,0,0,0,0,0,0,0,0,0,0,1,0,0,0,0,0,0,14102,2116,116907.89,48.79620023,1.98632665006,201.2563,-0.0001,-0.0017,0.0024,-0.495684836,-0.692920817,214.223443798,INS_SOLUTION_GOOD
1595838625568968450,31455,1595838625568402916,/novatel/imu,INSPVAA,USB3,0,13.0,FINESTEERING,2116,116907.9,16777216,0,0,0,1,0,0,0,0,0,0,0,0,0,0,0,0,1,0,0,0,0,0,0,14102,2116,116907.9,48.7962002301,1.98632665011,201.2563,0.0006,-0.0015,0.0023,-0.496196165,-0.694455816,214.224522159,INS_SOLUTION_GOOD
1595838625575921751,31456,1595838625575304153,/novatel/imu,INSPVAA,USB3,0,13.0,FINESTEERING,2116,116907.91,16777216,0,0,0,1,0,0,0,0,0,0,0,0,0,0,0,0,1,0,0,0,0,0,0,14102,2116,116907.91,48.79620023,1.98632665021,201.2563,0.0007,-0.0012,0.0025,-0.494919802,-0.694285166,214.223831032,INS_SOLUTION_GOOD
1595838625581214485,31457,1595838625580859973,/novatel/imu,INSPVAA,USB3,0,13.0,FINESTEERING,2116,116907.92,16777216,0,0,0,1,0,0,0,0,0,0,0,0,0,0,0,0,1,0,0,0,0,0,0,14102,2116,116907.92,48.79620023,1.98632665037,201.2563,0.0008,-0.0006,0.0026,-0.493713184,-0.695153928,214.223088683,INS_SOLUTION_GOOD
1595838625594648279,31458,1595838625592345362,/novatel/imu,INSPVAA,USB3,0,13.0,FINESTEERING,2116,116907.93,16777216,0,0,0,1,0,0,0,0,0,0,0,0,0,0,0,0,1,0,0,0,0,0,0,14102,2116,116907.93,48.79620023,1.98632665035,201.2563,0.0007,-0.001,0.0025,-0.493854811,-0.695014959,214.224201092,INS_SOLUTION_GOOD
1595838625600704039,31459,1595838625600324689,/novatel/imu,INSPVAA,USB3,0,13.0,FINESTEERING,2116,116907.94,16777216,0,0,0,1,0,0,0,0,0,0,0,0,0,0,0,0,1,0,0,0,0,0,0,14102,2116,116907.94,48.79620023,1.98632665018,201.2563,0.001,-0.0019,0.0027,-0.495370462,-0.694642637,214.224738159,INS_SOLUTION_GOOD
1595838625621744828,31460,1595838625620163598,/novatel/imu,INSPVAA,USB3,0,13.0,FINESTEERING,2116,116907.95,16777216,0,0,0,1,0,0,0,0,0,0,0,0,0,0,0,0,1,0,0,0,0,0,0,14102,2116,116907.95,48.7962002301,1.98632665009,201.2563,0.001,-0.0022,0.0022,-0.496206047,-0.69469017,214.224889799,INS_SOLUTION_GOOD
1595838625621766683,31461,1595838625621317104,/novatel/imu,INSPVAA,USB3,0,13.0,FINESTEERING,2116,116907.96,16777216,0,0,0,1,0,0,0,0,0,0,0,0,0,0,0,0,1,0,0,0,0,0,0,14102,2116,116907.96,48.7962002301,1.98632665016,201.2563,0.0011,-0.0016,0.0022,-0.495841268,-0.695297695,214.223096832,INS_SOLUTION_GOOD
1595838625630192294,31462,1595838625629746884,/novatel/imu,INSPVAA,USB3,0,13.0,FINESTEERING,2116,116907.97,16777216,0,0,0,1,0,0,0,0,0,0,0,0,0,0,0,0,1,0,0,0,0,0,0,14102,2116,116907.97,48.7962002303,1.98632665025,201.2563,0.0018,-0.0011,0.0025,-0.49634405,-0.697581998,214.222833895,INS_SOLUTION_GOOD
1595838625640483271,31463,1595838625640096479,/novatel/imu,INSPVAA,USB3,0,13.0,FINESTEERING,2116,116907.98,16777216,0,0,0,1,0,0,0,0,0,0,0,0,0,0,0,0,1,0,0,0,0,0,0,14102,2116,116907.98,48.7962002301,1.98632665026,201.2563,0.0007,-0.0014,0.0022,-0.495363467,-0.696333207,214.225226855,INS_SOLUTION_GOOD
1595838625651589248,31464,1595838625650137821,/novatel/imu,INSPVAA,USB3,0,13.0,FINESTEERING,2116,116907.99,16777216,0,0,0,1,0,0,0,0,0,0,0,0,0,0,0,0,1,0,0,0,0,0,0,14102,2116,116907.99,48.79620023,1.98632665035,201.2563,0.0002,-0.0009,0.0019,-0.49374555,-0.695343266,214.223182835,INS_SOLUTION_GOOD
1595838625679151646,31465,1595838625677606562,/novatel/imu,INSPVAA,USB3,0,13.0,FINESTEERING,2116,116908.0,16777216,0,0,0,1,0,0,0,0,0,0,0,0,0,0,0,0,1,0,0,0,0,0,0,14102,2116,116908.0,48.7962002301,1.98632665036,201.2563,0.0009,-0.0009,0.0016,-0.494388545,-0.696595015,214.223673019,INS_SOLUTION_GOOD
1595838625682308660,31466,1595838625681956878,/novatel/imu,INSPVAA,USB3,0,13.0,FINESTEERING,2116,116908.01,16777216,0,0,0,1,0,0,0,0,0,0,0,0,0,0,0,0,1,0,0,0,0,0,0,14102,2116,116908.01,48.7962002301,1.98632665028,201.2563,0.0006,-0.0011,0.0019,-0.494517527,-0.695684027,214.222257375,INS_SOLUTION_GOOD
1595838625684365317,31467,1595838625683921751,/novatel/imu,INSPVAA,USB3,0,13.0,FINESTEERING,2116,116908.02,16777216,0,0,0,1,0,0,0,0,0,0,0,0,0,0,0,0,1,0,0,0,0,0,0,14102,2116,116908.02,48.79620023,1.98632665023,201.2563,0.0004,-0.0013,0.0016,-0.494458511,-0.694908236,214.221488886,INS_SOLUTION_GOOD
1595838625690197928,31468,1595838625689772077,/novatel/imu,INSPVAA,USB3,0,13.0,FINESTEERING,2116,116908.03,16777216,0,0,0,1,0,0,0,0,0,0,0,0,0,0,0,0,1,0,0,0,0,0,0,14102,2116,116908.03,48.7962002299,1.98632665016,201.2563,-0.0001,-0.0014,0.0015,-0.494388599,-0.693753991,214.222633965,INS_SOLUTION_GOOD
1595838625702363494,31469,1595838625701785768,/novatel/imu,INSPVAA,USB3,0,13.0,FINESTEERING,2116,116908.04,16777216,0,0,0,1,0,0,0,0,0,0,0,0,0,0,0,0,1,0,0,0,0,0,0,14102,2116,116908.04,48.79620023,1.98632665014,201.2563,0.0004,-0.0013,0.0013,-0.494700629,-0.69399543,214.222899862,INS_SOLUTION_GOOD
1595838625717279025,31470,1595838625716942510,/novatel/imu,INSPVAA,USB3,0,13.0,FINESTEERING,2116,116908.05,16777216,0,0,0,1,0,0,0,0,0,0,0,0,0,0,0,0,1,0,0,0,0,0,0,14102,2116,116908.05,48.7962002299,1.98632665024,201.2563,0.0003,-0.0006,0.0017,-0.493597125,-0.694032563,214.222205985,INS_SOLUTION_GOOD
1595838625720859756,31471,1595838625720258832,/novatel/imu,INSPVAA,USB3,0,13.0,FINESTEERING,2116,116908.06,16777216,0,0,0,1,0,0,0,0,0,0,0,0,0,0,0,0,1,0,0,0,0,0,0,14102,2116,116908.06,48.79620023,1.98632664993,201.2563,0.0007,-0.0019,0.0018,-0.496496568,-0.693548104,214.222506492,INS_SOLUTION_GOOD
1595838625735680591,31472,1595838625731496747,/novatel/imu,INSPVAA,USB3,0,13.0,FINESTEERING,2116,116908.07,16777216,0,0,0,1,0,0,0,0,0,0,0,0,0,0,0,0,1,0,0,0,0,0,0,14102,2116,116908.07,48.79620023,1.98632665002,201.2563,0.0009,-0.0013,0.0018,-0.495888546,-0.694166882,214.220339995,INS_SOLUTION_GOOD
1595838625740657216,31473,1595838625740357482,/novatel/imu,INSPVAA,USB3,0,13.0,FINESTEERING,2116,116908.08,16777216,0,0,0,1,0,0,0,0,0,0,0,0,0,0,0,0,1,0,0,0,0,0,0,14102,2116,116908.08,48.79620023,1.98632664983,201.2563,0.0007,-0.0018,0.0018,-0.496875836,-0.692792765,214.220318979,INS_SOLUTION_GOOD
1595838625750888306,31474,1595838625750526755,/novatel/imu,INSPVAA,USB3,0,13.0,FINESTEERING,2116,116908.09,16777216,0,0,0,1,0,0,0,0,0,0,0,0,0,0,0,0,1,0,0,0,0,0,0,14102,2116,116908.09,48.7962002302,1.98632664956,201.2563,0.0007,0.0001,0.0016,-0.500736525,-0.694440816,214.21785715,INS_SOLUTION_GOOD
1595838625768964538,31475,1595838625768525232,/novatel/imu,INSPVAA,USB3,0,13.0,FINESTEERING,2116,116908.1,16777216,0,0,0,1,0,0,0,0,0,0,0,0,0,0,0,0,1,0,0,0,0,0,0,14102,2116,116908.1,48.7962002302,1.98632664963,201.2563,0.0007,0.0005,0.0016,-0.500279806,-0.694929885,214.217464934,INS_SOLUTION_GOOD
1595838625771710877,31476,1595838625771371733,/novatel/imu,INSPVAA,USB3,0,13.0,FINESTEERING,2116,116908.11,16777216,0,0,0,1,0,0,0,0,0,0,0,0,0,0,0,0,1,0,0,0,0,0,0,14102,2116,116908.11,48.7962002303,1.98632664975,201.2563,0.0004,0.0006,0.0016,-0.499455999,-0.695613013,214.217644279,INS_SOLUTION_GOOD
1595838625787076834,31477,1595838625786479815,/novatel/imu,INSPVAA,USB3,0,13.0,FINESTEERING,2116,116908.12,16777216,0,0,0,1,0,0,0,0,0,0,0,0,0,0,0,0,1,0,0,0,0,0,0,14102,2116,116908.12,48.7962002301,1.98632664968,201.2563,0.0,0.0004,0.0017,-0.49889146,-0.693897307,214.217031288,INS_SOLUTION_GOOD
1595838625792009885,31478,1595838625791557825,/novatel/imu,INSPVAA,USB3,0,13.0,FINESTEERING,2116,116908.13,16777216,0,0,0,1,0,0,0,0,0,0,0,0,0,0,0,0,1,0,0,0,0,0,0,14102,2116,116908.13,48.7962002303,1.98632664961,201.2563,0.001,0.0001,0.0017,-0.500327347,-0.695020339,214.216425334,INS_SOLUTION_GOOD
1595838625801879116,31479,1595838625801552918,/novatel/imu,INSPVAA,USB3,0,13.0,FINESTEERING,2116,116908.14,16777216,0,0,0,1,0,0,0,0,0,0,0,0,0,0,0,0,1,0,0,0,0,0,0,14102,2116,116908.14,48.7962002303,1.98632664975,201.2563,0.001,0.0006,0.0018,-0.499695001,-0.696270933,214.216974377,INS_SOLUTION_GOOD
1595838625820708615,31480,1595838625819488845,/novatel/imu,INSPVAA,USB3,0,13.0,FINESTEERING,2116,116908.15,16777216,0,0,0,1,0,0,0,0,0,0,0,0,0,0,0,0,1,0,0,0,0,0,0,14102,2116,116908.15,48.7962002303,1.98632664953,201.2563,0.001,-0.0001,0.0016,-0.501417937,-0.695496533,214.217577772,INS_SOLUTION_GOOD
1595838625825089783,31481,1595838625824623744,/novatel/imu,INSPVAA,USB3,0,13.0,FINESTEERING,2116,116908.16,16777216,0,0,0,1,0,0,0,0,0,0,0,0,0,0,0,0,1,0,0,0,0,0,0,14102,2116,116908.16,48.7962002301,1.98632664973,201.2563,-0.0003,0.001,0.0014,-0.49855958,-0.694475261,214.218305353,INS_SOLUTION_GOOD
1595838625847053551,31482,1595838625846367960,/novatel/imu,INSPVAA,USB3,0,13.0,FINESTEERING,2116,116908.17,16777216,0,0,0,1,0,0,0,0,0,0,0,0,0,0,0,0,1,0,0,0,0,0,0,14102,2116,116908.17,48.7962002303,1.98632664957,201.2563,0.0004,0.0001,0.0014,-0.500631542,-0.695137123,214.217300232,INS_SOLUTION_GOOD
1595838625847069335,31483,1595838625846367960,/novatel/imu,INSPVAA,USB3,0,13.0,FINESTEERING,2116,116908.18,16777216,0,0,0,1,0,0,0,0,0,0,0,0,0,0,0,0,1,0,0,0,0,0,0,14102,2116,116908.18,48.7962002302,1.98632664982,201.2563,-0.0002,0.0013,0.0011,-0.4984252,-0.695824684,214.217605037,INS_SOLUTION_GOOD
1595838625852005613,31484,1595838625851271188,/novatel/imu,INSPVAA,USB3,0,13.0,FINESTEERING,2116,116908.19,16777216,0,0,0,1,0,0,0,0,0,0,0,0,0,0,0,0,1,0,0,0,0,0,0,14102,2116,116908.19,48.7962002304,1.98632664989,201.2563,0.0007,0.0011,0.0012,-0.499242927,-0.698200649,214.217293882,INS_SOLUTION_GOOD
1595838625867753395,31485,1595838625867466438,/novatel/imu,INSPVAA,USB3,0,13.0,FINESTEERING,2116,116908.2,16777216,0,0,0,1,0,0,0,0,0,0,0,0,0,0,0,0,1,0,0,0,0,0,0,14102,2116,116908.2,48.7962002304,1.98632664991,201.2563,0.0006,0.0012,0.0013,-0.499222383,-0.698671451,214.21801189,INS_SOLUTION_GOOD
1595838625875025616,31486,1595838625871218986,/novatel/imu,INSPVAA,USB3,0,13.0,FINESTEERING,2116,116908.21,16777216,0,0,0,1,0,0,0,0,0,0,0,0,0,0,0,0,1,0,0,0,0,0,0,14102,2116,116908.21,48.7962002304,1.98632664978,201.2563,-0.0003,0.0003,0.0011,-0.499784281,-0.697491138,214.216930884,INS_SOLUTION_GOOD
1595838625881286832,31487,1595838625880639211,/novatel/imu,INSPVAA,USB3,0,13.0,FINESTEERING,2116,116908.22,16777216,0,0,0,1,0,0,0,0,0,0,0,0,0,0,0,0,1,0,0,0,0,0,0,14102,2116,116908.22,48.7962002304,1.98632664976,201.2563,-0.0005,0.0003,0.0011,-0.499996998,-0.69764787,214.217102815,INS_SOLUTION_GOOD
1595838625895501269,31488,1595838625895098548,/novatel/imu,INSPVAA,USB3,0,13.0,FINESTEERING,2116,116908.23,16777216,0,0,0,1,0,0,0,0,0,0,0,0,0,0,0,0,1,0,0,0,0,0,0,14102,2116,116908.23,48.7962002305,1.98632664956,201.2563,-0.0001,-0.0003,0.0013,-0.502301465,-0.697976808,214.216560591,INS_SOLUTION_GOOD
1595838625904903129,31489,1595838625904392190,/novatel/imu,INSPVAA,USB3,0,13.0,FINESTEERING,2116,116908.24,16777216,0,0,0,1,0,0,0,0,0,0,0,0,0,0,0,0,1,0,0,0,0,0,0,14102,2116,116908.24,48.7962002303,1.9863266496,201.2563,-0.0013,0.0003,0.0012,-0.500737853,-0.696283599,214.216733058,INS_SOLUTION_GOOD
1595838625918703302,31490,1595838625917912755,/novatel/imu,INSPVAA,USB3,0,13.0,FINESTEERING,2116,116908.25,16777216,0,0,0,1,0,0,0,0,0,0,0,0,0,0,0,0,1,0,0,0,0,0,0,14102,2116,116908.25,48.7962002304,1.98632664964,201.2563,-0.0006,0.0004,0.0016,-0.501094354,-0.697595212,214.215790746,INS_SOLUTION_GOOD
1595838625923515932,31491,1595838625922883098,/novatel/imu,INSPVAA,USB3,0,15.0,FINESTEERING,2116,116908.26,16777216,0,0,0,1,0,0,0,0,0,0,0,0,0,0,0,0,1,0,0,0,0,0,0,14102,2116,116908.26,48.7962002304,1.98632664973,201.2563,-0.0006,0.0008,0.0018,-0.500426936,-0.698194739,214.216697083,INS_SOLUTION_GOOD
1595838625932872621,31492,1595838625932397967,/novatel/imu,INSPVAA,USB3,0,15.0,FINESTEERING,2116,116908.27,16777216,0,0,0,1,0,0,0,0,0,0,0,0,0,0,0,0,1,0,0,0,0,0,0,14102,2116,116908.27,48.7962002304,1.98632664962,201.2563,-0.0005,0.0003,0.002,-0.501039323,-0.697394118,214.217176781,INS_SOLUTION_GOOD
1595838625943356458,31493,1595838625941197588,/novatel/imu,INSPVAA,USB3,0,15.0,FINESTEERING,2116,116908.28,16777216,0,0,0,1,0,0,0,0,0,0,0,0,0,0,0,0,1,0,0,0,0,0,0,14102,2116,116908.28,48.7962002305,1.98632664961,201.2563,0.0002,0.0002,0.0023,-0.501798299,-0.69846829,214.216425492,INS_SOLUTION_GOOD
1595838625950903713,31494,1595838625950264920,/novatel/imu,INSPVAA,USB3,0,15.0,FINESTEERING,2116,116908.29,16777216,0,0,0,1,0,0,0,0,0,0,0,0,0,0,0,0,1,0,0,0,0,0,0,14102,2116,116908.29,48.7962002304,1.9863266497,201.2563,-0.0004,0.0004,0.0023,-0.500498633,-0.697936609,214.219134787,INS_SOLUTION_GOOD
1595838625975023827,31495,1595838625974474150,/novatel/imu,INSPVAA,USB3,0,15.0,FINESTEERING,2116,116908.3,16777216,0,0,0,1,0,0,0,0,0,0,0,0,0,0,0,0,1,0,0,0,0,0,0,14102,2116,116908.3,48.7962002305,1.98632664971,201.2563,0.0006,0.0003,0.002,-0.500938709,-0.698883506,214.216616581,INS_SOLUTION_GOOD
1595838625975044051,31496,1595838625974474150,/novatel/imu,INSPVAA,USB3,0,15.0,FINESTEERING,2116,116908.31,16777216,0,0,0,1,0,0,0,0,0,0,0,0,0,0,0,0,1,0,0,0,0,0,0,14102,2116,116908.31,48.7962002306,1.98632664942,201.2563,0.0012,-0.0005,0.0022,-0.50356989,-0.698363768,214.215749949,INS_SOLUTION_GOOD
1595838625986584683,31497,1595838625986194037,/novatel/imu,INSPVAA,USB3,0,15.0,FINESTEERING,2116,116908.32,16777216,0,0,0,1,0,0,0,0,0,0,0,0,0,0,0,0,1,0,0,0,0,0,0,14102,2116,116908.32,48.7962002305,1.98632664952,201.2563,0.0012,0.0,0.002,-0.502575423,-0.698508948,214.215059588,INS_SOLUTION_GOOD
1595838625991115075,31498,1595838625990785505,/novatel/imu,INSPVAA,USB3,0,15.0,FINESTEERING,2116,116908.33,16777216,0,0,0,1,0,0,0,0,0,0,0,0,0,0,0,0,1,0,0,0,0,0,0,14102,2116,116908.33,48.7962002306,1.98632664948,201.2563,0.0018,-0.0001,0.0021,-0.503495685,-0.699421802,214.213765304,INS_SOLUTION_GOOD
1595838626005636094,31499,1595838626002482425,/novatel/imu,INSPVAA,USB3,0,15.0,FINESTEERING,2116,116908.34,16777216,0,0,0,1,0,0,0,0,0,0,0,0,0,0,0,0,1,0,0,0,0,0,0,14102,2116,116908.34,48.7962002307,1.98632664931,201.2563,0.002,-0.0007,0.0016,-0.505238069,-0.699350007,214.213021858,INS_SOLUTION_GOOD
1595838626019873822,31500,1595838626019217773,/novatel/imu,INSPVAA,USB3,0,15.0,FINESTEERING,2116,116908.35,16777216,0,0,0,1,0,0,0,0,0,0,0,0,0,0,0,0,1,0,0,0,0,0,0,14102,2116,116908.35,48.7962002306,1.9863266493,201.2563,0.0018,-0.0002,0.0014,-0.504654518,-0.698469474,214.214798124,INS_SOLUTION_GOOD
1595838626020752135,31501,1595838626020417429,/novatel/imu,INSPVAA,USB3,0,15.0,FINESTEERING,2116,116908.36,16777216,0,0,0,1,0,0,0,0,0,0,0,0,0,0,0,0,1,0,0,0,0,0,0,14102,2116,116908.36,48.7962002306,1.98632664923,201.2563,0.002,-0.0003,0.0012,-0.505197122,-0.698228483,214.212689829,INS_SOLUTION_GOOD
1595838626029855330,31502,1595838626029279223,/novatel/imu,INSPVAA,USB3,0,15.0,FINESTEERING,2116,116908.37,16777216,0,0,0,1,0,0,0,0,0,0,0,0,0,0,0,0,1,0,0,0,0,0,0,14102,2116,116908.37,48.7962002305,1.98632664923,201.2563,0.0016,-0.0001,0.0012,-0.504215529,-0.696907351,214.214204109,INS_SOLUTION_GOOD
1595838626040925186,31503,1595838626039668774,/novatel/imu,INSPVAA,USB3,0,15.0,FINESTEERING,2116,116908.38,16777216,0,0,0,1,0,0,0,0,0,0,0,0,0,0,0,0,1,0,0,0,0,0,0,14102,2116,116908.38,48.7962002306,1.98632664952,201.2563,0.0021,0.0009,0.0009,-0.502529528,-0.698930093,214.214451453,INS_SOLUTION_GOOD
1595838626050201058,31504,1595838626049907615,/novatel/imu,INSPVAA,USB3,0,15.0,FINESTEERING,2116,116908.39,16777216,0,0,0,1,0,0,0,0,0,0,0,0,0,0,0,0,1,0,0,0,0,0,0,14102,2116,116908.39,48.7962002305,1.98632664943,201.2563,0.0022,-0.0,0.001,-0.503117307,-0.698457282,214.21446957,INS_SOLUTION_GOOD
1595838626074942037,31505,1595838626074219554,/novatel/imu,INSPVAA,USB3,0,15.0,FINESTEERING,2116,116908.4,16777216,0,0,0,1,0,0,0,0,0,0,0,0,0,0,0,0,1,0,0,0,0,0,0,14102,2116,116908.4,48.7962002306,1.98632664942,201.2563,0.0022,-0.0002,0.0008,-0.503150509,-0.698621297,214.214536182,INS_SOLUTION_GOOD
1595838626074960503,31506,1595838626074219554,/novatel/imu,INSPVAA,USB3,0,15.0,FINESTEERING,2116,116908.41,16777216,0,0,0,1,0,0,0,0,0,0,0,0,0,0,0,0,1,0,0,0,0,0,0,14102,2116,116908.41,48.7962002305,1.98632664957,201.2563,0.0021,0.0003,0.001,-0.501776808,-0.698971864,214.214338501,INS_SOLUTION_GOOD
1595838626081625207,31507,1595838626080721352,/novatel/imu,INSPVAA,USB3,0,15.0,FINESTEERING,2116,116908.42,16777216,0,0,0,1,0,0,0,0,0,0,0,0,0,0,0,0,1,0,0,0,0,0,0,14102,2116,116908.42,48.7962002304,1.9863266494,201.2563,0.0018,-0.0006,0.0009,-0.502414282,-0.697379257,214.213696171,INS_SOLUTION_GOOD
1595838626091749972,31508,1595838626091106407,/novatel/imu,INSPVAA,USB3,0,15.0,FINESTEERING,2116,116908.43,16777216,0,0,0,1,0,0,0,0,0,0,0,0,0,0,0,0,1,0,0,0,0,0,0,14102,2116,116908.43,48.7962002304,1.98632664956,201.2563,0.0012,0.0002,0.0011,-0.50053787,-0.697163685,214.214045228,INS_SOLUTION_GOOD
1595838626099835580,31509,1595838626099387434,/novatel/imu,INSPVAA,USB3,0,15.0,FINESTEERING,2116,116908.44,16777216,0,0,0,1,0,0,0,0,0,0,0,0,0,0,0,0,1,0,0,0,0,0,0,14102,2116,116908.44,48.7962002304,1.98632664966,201.2563,0.0016,0.0002,0.001,-0.500020545,-0.69803247,214.214254105,INS_SOLUTION_GOOD
1595838626117659662,31510,1595838626117193037,/novatel/imu,INSPVAA,USB3,0,15.0,FINESTEERING,2116,116908.45,16777216,0,0,0,1,0,0,0,0,0,0,0,0,0,0,0,0,1,0,0,0,0,0,0,14102,2116,116908.45,48.7962002304,1.98632664972,201.2563,0.0012,0.0003,0.0011,-0.499340389,-0.698035981,214.213169925,INS_SOLUTION_GOOD
1595838626120495592,31511,1595838626120201870,/novatel/imu,INSPVAA,USB3,0,15.0,FINESTEERING,2116,116908.46,16777216,0,0,0,1,0,0,0,0,0,0,0,0,0,0,0,0,1,0,0,0,0,0,0,14102,2116,116908.46,48.7962002303,1.98632664991,201.2563,0.0012,0.0006,0.0013,-0.497628691,-0.698588573,214.214857765,INS_SOLUTION_GOOD
1595838626130280037,31512,1595838626129965807,/novatel/imu,INSPVAA,USB3,0,15.0,FINESTEERING,2116,116908.47,16777216,0,0,0,1,0,0,0,0,0,0,0,0,0,0,0,0,1,0,0,0,0,0,0,14102,2116,116908.47,48.7962002303,1.98632664969,201.2563,0.0011,-0.0006,0.0016,-0.498873106,-0.697068759,214.213742326,INS_SOLUTION_GOOD
1595838626147495705,31513,1595838626147086195,/novatel/imu,INSPVAA,USB3,0,15.0,FINESTEERING,2116,116908.48,16777216,0,0,0,1,0,0,0,0,0,0,0,0,0,0,0,0,1,0,0,0,0,0,0,14102,2116,116908.48,48.7962002302,1.9863266496,201.2563,0.0006,-0.0005,0.0016,-0.498815228,-0.695682505,214.215634738,INS_SOLUTION_GOOD
1595838626154145696,31514,1595838626153707343,/novatel/imu,INSPVAA,USB3,0,15.0,FINESTEERING,2116,116908.49,16777216,0,0,0,1,0,0,0,0,0,0,0,0,0,0,0,0,1,0,0,0,0,0,0,14102,2116,116908.49,48.7962002304,1.98632664977,201.2563,0.0016,0.0005,0.0017,-0.498832248,-0.698466166,214.214088665,INS_SOLUTION_GOOD
1595838626168708415,31515,1595838626168172879,/novatel/imu,INSPVAA,USB3,0,15.0,FINESTEERING,2116,116908.5,16777216,0,0,0,1,0,0,0,0,0,0,0,0,0,0,0,0,1,0,0,0,0,0,0,14102,2116,116908.5,48.7962002301,1.98632664983,201.2563,-0.0003,0.0004,0.0019,-0.496348741,-0.695871075,214.214970602,INS_SOLUTION_GOOD
1595838626174545100,31516,1595838626173866916,/novatel/imu,INSPVAA,USB3,0,15.0,FINESTEERING,2116,116908.51,16777216,0,0,0,1,0,0,0,0,0,0,0,0,0,0,0,0,1,0,0,0,0,0,0,14102,2116,116908.51,48.7962002302,1.98632664941,201.2563,0.0005,-0.0009,0.0022,-0.500334376,-0.695148284,214.216341832,INS_SOLUTION_GOOD
1595838626181572107,31517,1595838626180173799,/novatel/imu,INSPVAA,USB3,0,15.0,FINESTEERING,2116,116908.52,16777216,0,0,0,1,0,0,0,0,0,0,0,0,0,0,0,0,1,0,0,0,0,0,0,14102,2116,116908.52,48.79620023,1.98632664968,201.2563,-0.0008,0.0006,0.0021,-0.497083952,-0.694630991,214.215549414,INS_SOLUTION_GOOD
1595838626190969103,31518,1595838626190151940,/novatel/imu,INSPVAA,USB3,0,15.0,FINESTEERING,2116,116908.53,16777216,0,0,0,1,0,0,0,0,0,0,0,0,0,0,0,0,1,0,0,0,0,0,0,14102,2116,116908.53,48.7962002302,1.98632664974,201.2563,0.0004,0.0008,0.0023,-0.497838275,-0.696726813,214.215206844,INS_SOLUTION_GOOD
1595838626208143445,31519,1595838626207713189,/novatel/imu,INSPVAA,USB3,0,15.0,FINESTEERING,2116,116908.54,16777216,0,0,0,1,0,0,0,0,0,0,0,0,0,0,0,0,1,0,0,0,0,0,0,14102,2116,116908.54,48.7962002302,1.98632664984,201.2563,-0.0001,0.0011,0.0024,-0.496986364,-0.697199587,214.213654262,INS_SOLUTION_GOOD
1595838626218929101,31520,1595838626218116217,/novatel/imu,INSPVAA,USB3,0,15.0,FINESTEERING,2116,116908.55,16777216,0,0,0,1,0,0,0,0,0,0,0,0,0,0,0,0,1,0,0,0,0,0,0,14102,2116,116908.55,48.7962002302,1.98632664974,201.2563,-0.0001,0.0007,0.0026,-0.497777297,-0.696989418,214.214694326,INS_SOLUTION_GOOD
1595838626225054766,31521,1595838626224723566,/novatel/imu,INSPVAA,USB3,0,15.0,FINESTEERING,2116,116908.56,16777216,0,0,0,1,0,0,0,0,0,0,0,0,0,0,0,0,1,0,0,0,0,0,0,14102,2116,116908.56,48.7962002304,1.98632664962,201.2563,0.0006,0.0004,0.0025,-0.499672985,-0.697910961,214.214715926,INS_SOLUTION_GOOD
1595838626230990234,31522,1595838626230669757,/novatel/imu,INSPVAA,USB3,0,15.0,FINESTEERING,2116,116908.57,16777216,0,0,0,1,0,0,0,0,0,0,0,0,0,0,0,0,1,0,0,0,0,0,0,14102,2116,116908.57,48.7962002303,1.98632664955,201.2563,-0.0002,0.0004,0.0028,-0.499987753,-0.697459612,214.213798293,INS_SOLUTION_GOOD
1595838626240758956,31523,1595838626239850272,/novatel/imu,INSPVAA,USB3,0,15.0,FINESTEERING,2116,116908.58,16777216,0,0,0,1,0,0,0,0,0,0,0,0,0,0,0,0,1,0,0,0,0,0,0,14102,2116,116908.58,48.7962002303,1.98632664954,201.2563,-0.0006,0.0005,0.0028,-0.499779903,-0.696908864,214.215202822,INS_SOLUTION_GOOD
1595838626250553875,31524,1595838626249892847,/novatel/imu,INSPVAA,USB3,0,15.0,FINESTEERING,2116,116908.59,16777216,0,0,0,1,0,0,0,0,0,0,0,0,0,0,0,0,1,0,0,0,0,0,0,14102,2116,116908.59,48.7962002305,1.98632664957,201.2563,0.0003,0.0009,0.0029,-0.500729555,-0.698956945,214.214406789,INS_SOLUTION_GOOD
1595838626267873425,31525,1595838626267560207,/novatel/imu,INSPVAA,USB3,0,15.0,FINESTEERING,2116,116908.6,16777216,0,0,0,1,0,0,0,0,0,0,0,0,0,0,0,0,1,0,0,0,0,0,0,14102,2116,116908.6,48.7962002306,1.98632664951,201.2563,0.0009,0.0005,0.003,-0.501976956,-0.699971204,214.212794769,INS_SOLUTION_GOOD
1595838626274439844,31526,1595838626273466241,/novatel/imu,INSPVAA,USB3,0,15.0,FINESTEERING,2116,116908.61,16777216,0,0,0,1,0,0,0,0,0,0,0,0,0,0,0,0,1,0,0,0,0,0,0,14102,2116,116908.61,48.7962002306,1.98632664951,201.2563,0.0004,0.0009,0.003,-0.501864064,-0.699962134,214.212775667,INS_SOLUTION_GOOD
1595838626282963017,31527,1595838626282478865,/novatel/imu,INSPVAA,USB3,0,15.0,FINESTEERING,2116,116908.62,16777216,0,0,0,1,0,0,0,0,0,0,0,0,0,0,0,0,1,0,0,0,0,0,0,14102,2116,116908.62,48.7962002306,1.98632664956,201.2562,0.0004,0.0012,0.003,-0.501458414,-0.700120686,214.213173505,INS_SOLUTION_GOOD
1595838626290508120,31528,1595838626290180079,/novatel/imu,INSPVAA,USB3,0,15.0,FINESTEERING,2116,116908.63,16777216,0,0,0,1,0,0,0,0,0,0,0,0,0,0,0,0,1,0,0,0,0,0,0,14102,2116,116908.63,48.7962002307,1.98632664944,201.2562,0.0009,0.0009,0.0028,-0.503076934,-0.700774887,214.211692783,INS_SOLUTION_GOOD
1595838626301248023,31529,1595838626300814355,/novatel/imu,INSPVAA,USB3,0,15.0,FINESTEERING,2116,116908.64,16777216,0,0,0,1,0,0,0,0,0,0,0,0,0,0,0,0,1,0,0,0,0,0,0,14102,2116,116908.64,48.7962002308,1.98632664922,201.2562,0.001,0.0003,0.0028,-0.505305466,-0.700604491,214.214062582,INS_SOLUTION_GOOD
1595838626318495476,31530,1595838626317874405,/novatel/imu,INSPVAA,USB3,0,15.0,FINESTEERING,2116,116908.65,16777216,0,0,0,1,0,0,0,0,0,0,0,0,0,0,0,0,1,0,0,0,0,0,0,14102,2116,116908.65,48.7962002308,1.98632664949,201.2562,0.0016,0.0015,0.0028,-0.503589141,-0.702533403,214.212934625,INS_SOLUTION_GOOD
1595838626323901370,31531,1595838626323438521,/novatel/imu,INSPVAA,USB3,0,15.0,FINESTEERING,2116,116908.66,16777216,0,0,0,1,0,0,0,0,0,0,0,0,0,0,0,0,1,0,0,0,0,0,0,14102,2116,116908.66,48.7962002305,1.98632664936,201.2562,0.0001,0.0007,0.0026,-0.502600437,-0.699019738,214.212902846,INS_SOLUTION_GOOD
1595838626332993790,31532,1595838626332472778,/novatel/imu,INSPVAA,USB3,0,15.0,FINESTEERING,2116,116908.67,16777216,0,0,0,1,0,0,0,0,0,0,0,0,0,0,0,0,1,0,0,0,0,0,0,14102,2116,116908.67,48.7962002308,1.9863266493,201.2562,0.0022,0.0008,0.0024,-0.504493114,-0.701007475,214.211687004,INS_SOLUTION_GOOD
1595838626341398797,31533,1595838626341049709,/novatel/imu,INSPVAA,USB3,0,15.0,FINESTEERING,2116,116908.68,16777216,0,0,0,1,0,0,0,0,0,0,0,0,0,0,0,0,1,0,0,0,0,0,0,14102,2116,116908.68,48.7962002308,1.98632664923,201.2562,0.0028,0.0009,0.0027,-0.505473405,-0.701513706,214.211789587,INS_SOLUTION_GOOD
1595838626349697754,31534,1595838626349392178,/novatel/imu,INSPVAA,USB3,0,15.0,FINESTEERING,2116,116908.69,16777216,0,0,0,1,0,0,0,0,0,0,0,0,0,0,0,0,1,0,0,0,0,0,0,14102,2116,116908.69,48.7962002306,1.98632664916,201.2562,0.0013,0.0003,0.0015,-0.504355364,-0.698698974,214.213243468,INS_SOLUTION_GOOD
1595838626368695906,31535,1595838626368263330,/novatel/imu,INSPVAA,USB3,0,15.0,FINESTEERING,2116,116908.7,16777216,0,0,0,1,0,0,0,0,0,0,0,0,0,0,0,0,1,0,0,0,0,0,0,14102,2116,116908.7,48.7962002307,1.98632664924,201.2562,0.003,0.001,0.0024,-0.504700523,-0.700632139,214.21458271,INS_SOLUTION_GOOD
1595838626372188744,31536,1595838626371506768,/novatel/imu,INSPVAA,USB3,0,15.0,FINESTEERING,2116,116908.71,16777216,0,0,0,1,0,0,0,0,0,0,0,0,0,0,0,0,1,0,0,0,0,0,0,14102,2116,116908.71,48.7962002306,1.98632664916,201.2562,0.0021,0.0005,0.0019,-0.504030936,-0.698454813,214.212862948,INS_SOLUTION_GOOD
1595838626384344215,31537,1595838626383938581,/novatel/imu,INSPVAA,USB3,0,15.0,FINESTEERING,2116,116908.72,16777216,0,0,0,1,0,0,0,0,0,0,0,0,0,0,0,0,1,0,0,0,0,0,0,14102,2116,116908.72,48.7962002305,1.98632664927,201.2562,0.002,0.0011,0.0012,-0.502844039,-0.698466254,214.214554442,INS_SOLUTION_GOOD
1595838626391744966,31538,1595838626391043490,/novatel/imu,INSPVAA,USB3,0,15.0,FINESTEERING,2116,116908.73,16777216,0,0,0,1,0,0,0,0,0,0,0,0,0,0,0,0,1,0,0,0,0,0,0,14102,2116,116908.73,48.7962002307,1.98632664949,201.2562,0.0034,0.0012,0.0015,-0.502263526,-0.70108625,214.213634277,INS_SOLUTION_GOOD
1595838626401900469,31539,1595838626401093169,/novatel/imu,INSPVAA,USB3,0,15.0,FINESTEERING,2116,116908.74,16777216,0,0,0,1,0,0,0,0,0,0,0,0,0,0,0,0,1,0,0,0,0,0,0,14102,2116,116908.74,48.7962002305,1.98632664919,201.2562,0.0024,0.0001,0.0016,-0.502970108,-0.697647054,214.213935848,INS_SOLUTION_GOOD
1595838626419652110,31540,1595838626419045693,/novatel/imu,INSPVAA,USB3,0,15.0,FINESTEERING,2116,116908.75,16777216,0,0,0,1,0,0,0,0,0,0,0,0,0,0,0,0,1,0,0,0,0,0,0,14102,2116,116908.75,48.7962002305,1.98632664923,201.2562,0.0027,-0.0001,0.0009,-0.502873126,-0.698262537,214.21354665,INS_SOLUTION_GOOD
1595838626422365615,31541,1595838626421829564,/novatel/imu,INSPVAA,USB3,0,15.0,FINESTEERING,2116,116908.76,16777216,0,0,0,1,0,0,0,0,0,0,0,0,0,0,0,0,1,0,0,0,0,0,0,14102,2116,116908.76,48.7962002304,1.98632664928,201.2562,0.0024,-0.0001,0.0016,-0.501802964,-0.697448728,214.213929119,INS_SOLUTION_GOOD
1595838626432349542,31542,1595838626430713103,/novatel/imu,INSPVAA,USB3,0,15.0,FINESTEERING,2116,116908.77,16777216,0,0,0,1,0,0,0,0,0,0,0,0,0,0,0,0,1,0,0,0,0,0,0,14102,2116,116908.77,48.7962002306,1.98632664944,201.2562,0.0039,0.0002,0.0015,-0.502037488,-0.700392563,214.212166903,INS_SOLUTION_GOOD
1595838626440956387,31543,1595838626440591384,/novatel/imu,INSPVAA,USB3,0,15.0,FINESTEERING,2116,116908.78,16777216,0,0,0,1,0,0,0,0,0,0,0,0,0,0,0,0,1,0,0,0,0,0,0,14102,2116,116908.78,48.7962002303,1.98632664935,201.2562,0.0017,-0.0006,0.0017,-0.500334416,-0.696596475,214.214149586,INS_SOLUTION_GOOD
1595838626453789118,31544,1595838626453085412,/novatel/imu,INSPVAA,USB3,0,15.0,FINESTEERING,2116,116908.79,16777216,0,0,0,1,0,0,0,0,0,0,0,0,0,0,0,0,1,0,0,0,0,0,0,14102,2116,116908.79,48.7962002303,1.98632664945,201.2562,0.0028,-0.0006,0.0016,-0.49993187,-0.697548372,214.213391383,INS_SOLUTION_GOOD
1595838626467997943,31545,1595838626467648987,/novatel/imu,INSPVAA,USB3,0,15.0,FINESTEERING,2116,116908.8,16777216,0,0,0,1,0,0,0,0,0,0,0,0,0,0,0,0,1,0,0,0,0,0,0,14102,2116,116908.8,48.7962002302,1.98632664934,201.2562,0.0015,-0.0011,0.0022,-0.499512261,-0.695376972,214.214179945,INS_SOLUTION_GOOD
1595838626471447149,31546,1595838626471126360,/novatel/imu,INSPVAA,USB3,0,15.0,FINESTEERING,2116,116908.81,16777216,0,0,0,1,0,0,0,0,0,0,0,0,0,0,0,0,1,0,0,0,0,0,0,14102,2116,116908.81,48.7962002303,1.98632664971,201.2562,0.0023,-0.0002,0.0016,-0.497864155,-0.698816825,214.212699413,INS_SOLUTION_GOOD
1595838626488252250,31547,1595838626487797475,/novatel/imu,INSPVAA,USB3,0,15.0,FINESTEERING,2116,116908.82,16777216,0,0,0,1,0,0,0,0,0,0,0,0,0,0,0,0,1,0,0,0,0,0,0,14102,2116,116908.82,48.7962002301,1.98632664936,201.2562,0.0012,-0.0016,0.003,-0.49914271,-0.695279992,214.215086182,INS_SOLUTION_GOOD
1595838626495542341,31548,1595838626494641362,/novatel/imu,INSPVAA,USB3,0,15.0,FINESTEERING,2116,116908.83,16777216,0,0,0,1,0,0,0,0,0,0,0,0,0,0,0,0,1,0,0,0,0,0,0,14102,2116,116908.83,48.7962002304,1.98632664969,201.2562,0.0019,-0.0005,0.0015,-0.49823904,-0.69920476,214.215240853,INS_SOLUTION_GOOD
1595838626505498517,31549,1595838626504803677,/novatel/imu,INSPVAA,USB3,0,15.0,FINESTEERING,2116,116908.84,16777216,0,0,0,1,0,0,0,0,0,0,0,0,0,0,0,0,1,0,0,0,0,0,0,14102,2116,116908.84,48.7962002303,1.98632664967,201.2562,0.0019,-0.001,0.0017,-0.498253822,-0.699009084,214.214780371,INS_SOLUTION_GOOD
1595838626520334479,31550,1595838626519809629,/novatel/imu,INSPVAA,USB3,0,15.0,FINESTEERING,2116,116908.85,16777216,0,0,0,1,0,0,0,0,0,0,0,0,0,0,0,0,1,0,0,0,0,0,0,14102,2116,116908.85,48.7962002303,1.98632664983,201.2562,0.0014,-0.0005,0.0024,-0.497022675,-0.699825689,214.213115567,INS_SOLUTION_GOOD
1595838626522599653,31551,1595838626522223830,/novatel/imu,INSPVAA,USB3,0,15.0,FINESTEERING,2116,116908.86,16777216,0,0,0,1,0,0,0,0,0,0,0,0,0,0,0,0,1,0,0,0,0,0,0,14102,2116,116908.86,48.7962002302,1.98632664967,201.2562,0.0001,-0.0014,0.0015,-0.497098161,-0.697448051,214.213778527,INS_SOLUTION_GOOD
1595838626531358949,31552,1595838626531030917,/novatel/imu,INSPVAA,USB3,0,15.0,FINESTEERING,2116,116908.87,16777216,0,0,0,1,0,0,0,0,0,0,0,0,0,0,0,0,1,0,0,0,0,0,0,14102,2116,116908.87,48.7962002302,1.98632664998,201.2562,0.0003,-0.0,0.0023,-0.49475507,-0.698881785,214.212912426,INS_SOLUTION_GOOD
1595838626540979503,31553,1595838626540391403,/novatel/imu,INSPVAA,USB3,0,15.0,FINESTEERING,2116,116908.88,16777216,0,0,0,1,0,0,0,0,0,0,0,0,0,0,0,0,1,0,0,0,0,0,0,14102,2116,116908.88,48.7962002303,1.9863266498,201.2562,0.0009,-0.0004,0.0017,-0.496664481,-0.699071856,214.212340829,INS_SOLUTION_GOOD
1595838626552220935,31554,1595838626551197209,/novatel/imu,INSPVAA,USB3,0,15.0,FINESTEERING,2116,116908.89,16777216,0,0,0,1,0,0,0,0,0,0,0,0,0,0,0,0,1,0,0,0,0,0,0,14102,2116,116908.89,48.7962002302,1.98632664987,201.2562,-0.0002,-0.0008,0.0022,-0.495271065,-0.698162394,214.210410172,INS_SOLUTION_GOOD
1595838626573460821,31555,1595838626572509384,/novatel/imu,INSPVAA,USB3,0,15.0,FINESTEERING,2116,116908.9,16777216,0,0,0,1,0,0,0,0,0,0,0,0,0,0,0,0,1,0,0,0,0,0,0,14102,2116,116908.9,48.7962002301,1.98632664986,201.2562,-0.0007,0.0003,0.0041,-0.494888998,-0.697559346,214.211708951,INS_SOLUTION_GOOD
1595838626573649194,31556,1595838626572509384,/novatel/imu,INSPVAA,USB3,0,15.0,FINESTEERING,2116,116908.91,16777216,0,0,0,1,0,0,0,0,0,0,0,0,0,0,0,0,1,0,0,0,0,0,0,14102,2116,116908.91,48.7962002302,1.98632664964,201.2562,-0.0003,-0.0011,0.0028,-0.497341558,-0.69783739,214.210340833,INS_SOLUTION_GOOD
1595838626583532672,31557,1595838626582760132,/novatel/imu,INSPVAA,USB3,0,15.0,FINESTEERING,2116,116908.92,16777216,0,0,0,1,0,0,0,0,0,0,0,0,0,0,0,0,1,0,0,0,0,0,0,14102,2116,116908.92,48.7962002303,1.98632664996,201.2562,0.0001,0.0013,0.0038,-0.495174486,-0.699710864,214.21147106,INS_SOLUTION_GOOD
1595838626597150626,31558,1595838626591235683,/novatel/imu,INSPVAA,USB3,0,15.0,FINESTEERING,2116,116908.93,16777216,0,0,0,1,0,0,0,0,0,0,0,0,0,0,0,0,1,0,0,0,0,0,0,14102,2116,116908.93,48.7962002301,1.98632664946,201.2562,-0.0014,-0.001,0.0032,-0.497910858,-0.696012679,214.211457938,INS_SOLUTION_GOOD
1595838626607437658,31559,1595838626606963268,/novatel/imu,INSPVAA,USB3,0,15.0,FINESTEERING,2116,116908.94,16777216,0,0,0,1,0,0,0,0,0,0,0,0,0,0,0,0,1,0,0,0,0,0,0,14102,2116,116908.94,48.7962002302,1.98632664945,201.2562,-0.002,-0.0007,0.0033,-0.498187405,-0.696426577,214.21040449,INS_SOLUTION_GOOD
1595838626617858812,31560,1595838626617474600,/novatel/imu,INSPVAA,USB3,0,15.0,FINESTEERING,2116,116908.95,16777216,0,0,0,1,0,0,0,0,0,0,0,0,0,0,0,0,1,0,0,0,0,0,0,14102,2116,116908.95,48.7962002304,1.98632664975,201.2562,-0.0006,0.001,0.0026,-0.497982449,-0.700880301,214.21165122,INS_SOLUTION_GOOD
1595838626633472668,31561,1595838626632999452,/novatel/imu,INSPVAA,USB3,0,15.0,FINESTEERING,2116,116908.96,16777216,0,0,0,1,0,0,0,0,0,0,0,0,0,0,0,0,1,0,0,0,0,0,0,14102,2116,116908.96,48.7962002301,1.98632664925,201.2562,-0.0037,-0.0014,0.0025,-0.499301321,-0.695148824,214.210397949,INS_SOLUTION_GOOD
1595838626633508633,31562,1595838626632999452,/novatel/imu,INSPVAA,USB3,0,15.0,FINESTEERING,2116,116908.97,16777216,0,0,0,1,0,0,0,0,0,0,0,0,0,0,0,0,1,0,0,0,0,0,0,14102,2116,116908.97,48.7962002304,1.98632664939,201.2562,-0.0016,0.0001,0.0033,-0.50037369,-0.698842645,214.212881019,INS_SOLUTION_GOOD
1595838626641317030,31563,1595838626640897245,/novatel/imu,INSPVAA,USB3,0,15.0,FINESTEERING,2116,116908.98,16777216,0,0,0,1,0,0,0,0,0,0,0,0,0,0,0,0,1,0,0,0,0,0,0,14102,2116,116908.98,48.7962002305,1.9863266493,201.2562,-0.0028,-0.0002,0.002,-0.501777207,-0.699531575,214.212659858,INS_SOLUTION_GOOD
1595838626652389958,31564,1595838626651901976,/novatel/imu,INSPVAA,USB3,0,15.0,FINESTEERING,2116,116908.99,16777216,0,0,0,1,0,0,0,0,0,0,0,0,0,0,0,0,1,0,0,0,0,0,0,14102,2116,116908.99,48.7962002304,1.98632664896,201.2562,-0.0044,-0.0019,0.0014,-0.503532592,-0.696957252,214.214131823,INS_SOLUTION_GOOD
1595838626677506134,31565,1595838626676927523,/novatel/imu,INSPVAA,USB3,0,15.0,FINESTEERING,2116,116909.0,16777216,0,0,0,1,0,0,0,0,0,0,0,0,0,0,0,0,1,0,0,0,0,0,0,14102,2116,116909.0,48.7962002307,1.98632664905,201.2562,-0.0039,-0.0009,0.0012,-0.504519666,-0.699953001,214.215059034,INS_SOLUTION_GOOD
1595838626683948491,31566,1595838626683480659,/novatel/imu,INSPVAA,USB3,0,15.0,FINESTEERING,2116,116909.01,16777216,0,0,0,1,0,0,0,0,0,0,0,0,0,0,0,0,1,0,0,0,0,0,0,14102,2116,116909.01,48.7962002304,1.98632664882,201.2562,-0.0056,-0.0027,0.001,-0.504462895,-0.696357808,214.214589499,INS_SOLUTION_GOOD
1595838626684644225,31567,1595838626684329897,/novatel/imu,INSPVAA,USB3,0,15.0,FINESTEERING,2116,116909.02,16777216,0,0,0,1,0,0,0,0,0,0,0,0,0,0,0,0,1,0,0,0,0,0,0,14102,2116,116909.02,48.7962002304,1.98632664857,201.2562,-0.0073,-0.0043,-0.0001,-0.506053813,-0.694797131,214.216320693,INS_SOLUTION_GOOD
1595838626691149657,31568,1595838626690605237,/novatel/imu,INSPVAA,USB3,0,15.0,FINESTEERING,2116,116909.03,16777216,0,0,0,1,0,0,0,0,0,0,0,0,0,0,0,0,1,0,0,0,0,0,0,14102,2116,116909.03,48.7962002305,1.98632664853,201.2562,-0.0064,-0.0042,0.0013,-0.50673272,-0.695301646,214.214395143,INS_SOLUTION_GOOD
1595838626703946547,31569,1595838626701498161,/novatel/imu,INSPVAA,USB3,0,15.0,FINESTEERING,2116,116909.04,16777216,0,0,0,1,0,0,0,0,0,0,0,0,0,0,0,0,1,0,0,0,0,0,0,14102,2116,116909.04,48.7962002304,1.98632664836,201.2562,-0.0089,-0.0063,-0.0005,-0.507345027,-0.693543664,214.214673053,INS_SOLUTION_GOOD
1595838626717723468,31570,1595838626717232775,/novatel/imu,INSPVAA,USB3,0,15.0,FINESTEERING,2116,116909.05,16777216,0,0,0,1,0,0,0,0,0,0,0,0,0,0,0,0,1,0,0,0,0,0,0,14102,2116,116909.05,48.7962002304,1.98632664833,201.2562,-0.0088,-0.0069,-0.001,-0.507543092,-0.693479668,214.21557102,INS_SOLUTION_GOOD
1595838626724824980,31571,1595838626723745307,/novatel/imu,INSPVAA,USB3,0,15.0,FINESTEERING,2116,116909.06,16777216,0,0,0,1,0,0,0,0,0,0,0,0,0,0,0,0,1,0,0,0,0,0,0,14102,2116,116909.06,48.7962002302,1.98632664817,201.2562,-0.0115,-0.0092,-0.0001,-0.507025556,-0.690309055,214.216875718,INS_SOLUTION_GOOD
1595838626730786463,31572,1595838626730282592,/novatel/imu,INSPVAA,USB3,0,15.0,FINESTEERING,2116,116909.07,16777216,0,0,0,1,0,0,0,0,0,0,0,0,0,0,0,0,1,0,0,0,0,0,0,14102,2116,116909.07,48.7962002303,1.98632664792,201.2562,-0.0118,-0.0117,-0.001,-0.509917725,-0.690760151,214.216317406,INS_SOLUTION_GOOD
1595838626741445508,31573,1595838626740741375,/novatel/imu,INSPVAA,USB3,0,15.0,FINESTEERING,2116,116909.08,16777216,0,0,0,1,0,0,0,0,0,0,0,0,0,0,0,0,1,0,0,0,0,0,0,14102,2116,116909.08,48.7962002302,1.98632664766,201.2562,-0.0149,-0.0147,-0.0016,-0.510849688,-0.68804434,214.216834926,INS_SOLUTION_GOOD
1595838626758611969,31574,1595838626757868923,/novatel/imu,INSPVAA,USB3,0,15.0,FINESTEERING,2116,116909.09,16777216,0,0,0,1,0,0,0,0,0,0,0,0,0,0,0,0,1,0,0,0,0,0,0,14102,2116,116909.09,48.7962002299,1.98632664766,201.2562,-0.0179,-0.0158,-0.0021,-0.508807745,-0.685322073,214.214459289,INS_SOLUTION_GOOD
1595838626770532379,31575,1595838626769285543,/novatel/imu,INSPVAA,USB3,0,15.0,FINESTEERING,2116,116909.1,16777216,0,0,0,1,0,0,0,0,0,0,0,0,0,0,0,0,1,0,0,0,0,0,0,14102,2116,116909.1,48.7962002287,1.98632664759,201.2562,-0.0151,-0.018,-0.0031,-0.50048443,-0.671796729,214.223343837,INS_SOLUTION_GOOD
1595838626771526575,31576,1595838626771211670,/novatel/imu,INSPVAA,USB3,0,15.0,FINESTEERING,2116,116909.11,16777216,0,0,0,1,0,0,0,0,0,0,0,0,0,0,0,0,1,0,0,0,0,0,0,14102,2116,116909.11,48.7962002286,1.98632664731,201.2562,-0.0166,-0.0203,-0.0033,-0.501721914,-0.669478253,214.222216078,INS_SOLUTION_GOOD
1595838626781873028,31577,1595838626781428563,/novatel/imu,INSPVAA,USB3,0,15.0,FINESTEERING,2116,116909.12,16777216,0,0,0,1,0,0,0,0,0,0,0,0,0,0,0,0,1,0,0,0,0,0,0,14102,2116,116909.12,48.7962002284,1.98632664726,201.2562,-0.0193,-0.0216,-0.0025,-0.500580257,-0.667040188,214.220289752,INS_SOLUTION_GOOD
1595838626796616441,31578,1595838626796102662,/novatel/imu,INSPVAA,USB3,0,15.0,FINESTEERING,2116,116909.13,16777216,0,0,0,1,0,0,0,0,0,0,0,0,0,0,0,0,1,0,0,0,0,0,0,14102,2116,116909.13,48.7962002283,1.9863266471,201.2562,-0.0217,-0.0236,-0.0022,-0.501114859,-0.665336236,214.222607469,INS_SOLUTION_GOOD
1595838626811214582,31579,1595838626800311822,/novatel/imu,INSPVAA,USB3,0,15.0,FINESTEERING,2116,116909.14,16777216,0,0,0,1,0,0,0,0,0,0,0,0,0,0,0,0,1,0,0,0,0,0,0,14102,2116,116909.14,48.7962002282,1.98632664739,201.2562,-0.0249,-0.024,-0.0019,-0.49800943,-0.665395665,214.221412356,INS_SOLUTION_GOOD
1595838626820426286,31580,1595838626817915715,/novatel/imu,INSPVAA,USB3,0,15.0,FINESTEERING,2116,116909.15,16777216,0,0,0,1,0,0,0,0,0,0,0,0,0,0,0,0,1,0,0,0,0,0,0,14102,2116,116909.15,48.7962002283,1.98632664719,201.2562,-0.027,-0.0269,-0.0011,-0.499550822,-0.664887425,214.220312587,INS_SOLUTION_GOOD
1595838626823326134,31581,1595838626822716799,/novatel/imu,INSPVAA,USB3,0,15.0,FINESTEERING,2116,116909.16,16777216,0,0,0,1,0,0,0,0,0,0,0,0,0,0,0,0,1,0,0,0,0,0,0,14102,2116,116909.16,48.796200228,1.9863266473,201.2562,-0.0308,-0.0277,-0.0003,-0.496773807,-0.662511898,214.219534851,INS_SOLUTION_GOOD
1595838626834133058,31582,1595838626833619968,/novatel/imu,INSPVAA,USB3,0,15.0,FINESTEERING,2116,116909.17,16777216,0,0,0,1,0,0,0,0,0,0,0,0,0,0,0,0,1,0,0,0,0,0,0,14102,2116,116909.17,48.7962002279,1.98632664746,201.2562,-0.0334,-0.0294,-0.0004,-0.494840811,-0.662216274,214.221845492,INS_SOLUTION_GOOD
1595838626845098524,31583,1595838626844771756,/novatel/imu,INSPVAA,USB3,0,15.0,FINESTEERING,2116,116909.18,16777216,0,0,0,1,0,0,0,0,0,0,0,0,0,0,0,0,1,0,0,0,0,0,0,14102,2116,116909.18,48.7962002278,1.98632664727,201.2562,-0.0363,-0.0321,0.0008,-0.495763205,-0.660819101,214.220815976,INS_SOLUTION_GOOD
1595838626861280068,31584,1595838626850506267,/novatel/imu,INSPVAA,USB3,0,15.0,FINESTEERING,2116,116909.19,16777216,0,0,0,1,0,0,0,0,0,0,0,0,0,0,0,0,1,0,0,0,0,0,0,14102,2116,116909.19,48.7962002277,1.98632664734,201.2562,-0.0403,-0.0336,-0.0001,-0.494344798,-0.659928389,214.219470394,INS_SOLUTION_GOOD
1595838626882407851,31585,1595838626874084199,/novatel/imu,INSPVAA,USB3,0,15.0,FINESTEERING,2116,116909.2,16777216,0,0,0,1,0,0,0,0,0,0,0,0,0,0,0,0,1,0,0,0,0,0,0,14102,2116,116909.2,48.7962002276,1.98632664769,201.2562,-0.0428,-0.0343,0.0003,-0.491227375,-0.660917714,214.219866744,INS_SOLUTION_GOOD
1595838626882559607,31586,1595838626874084199,/novatel/imu,INSPVAA,USB3,0,15.0,FINESTEERING,2116,116909.21,16777216,0,0,0,1,0,0,0,0,0,0,0,0,0,0,0,0,1,0,0,0,0,0,0,14102,2116,116909.21,48.7962002277,1.98632664767,201.2562,-0.045,-0.0365,0.0011,-0.491549994,-0.661235367,214.219294279,INS_SOLUTION_GOOD
1595838626882644725,31587,1595838626881598622,/novatel/imu,INSPVAA,USB3,0,15.0,FINESTEERING,2116,116909.22,16777216,0,0,0,1,0,0,0,0,0,0,0,0,0,0,0,0,1,0,0,0,0,0,0,14102,2116,116909.22,48.7962002275,1.98632664756,201.2562,-0.0493,-0.0395,0.0012,-0.491163014,-0.659084053,214.219856776,INS_SOLUTION_GOOD
1595838626892904773,31588,1595838626892483182,/novatel/imu,INSPVAA,USB3,0,15.0,FINESTEERING,2116,116909.23,16777216,0,0,0,1,0,0,0,0,0,0,0,0,0,0,0,0,1,0,0,0,0,0,0,14102,2116,116909.23,48.7962002275,1.98632664755,201.2562,-0.052,-0.0413,0.0009,-0.49132063,-0.65923801,214.221352459,INS_SOLUTION_GOOD
1595838626901028409,31589,1595838626900678316,/novatel/imu,INSPVAA,USB3,0,15.0,FINESTEERING,2116,116909.24,16777216,0,0,0,1,0,0,0,0,0,0,0,0,0,0,0,0,1,0,0,0,0,0,0,14102,2116,116909.24,48.7962002275,1.98632664748,201.2562,-0.0547,-0.0437,0.0009,-0.491397567,-0.658423902,214.221038355,INS_SOLUTION_GOOD
1595838626918548137,31590,1595838626917638965,/novatel/imu,INSPVAA,USB3,0,15.0,FINESTEERING,2116,116909.25,16777216,0,0,0,1,0,0,0,0,0,0,0,0,0,0,0,0,1,0,0,0,0,0,0,14102,2116,116909.25,48.7962002273,1.98632664741,201.2562,-0.0586,-0.0458,0.0007,-0.490489374,-0.656269755,214.220194411,INS_SOLUTION_GOOD
1595838626922367892,31591,1595838626921816284,/novatel/imu,INSPVAA,USB3,0,15.0,FINESTEERING,2116,116909.26,16777216,0,0,0,1,0,0,0,0,0,0,0,0,0,0,0,0,1,0,0,0,0,0,0,14102,2116,116909.26,48.7962002275,1.98632664742,201.2562,-0.0597,-0.0476,0.0012,-0.491883007,-0.658551871,214.22165649,INS_SOLUTION_GOOD
1595838626936390237,31592,1595838626935720961,/novatel/imu,INSPVAA,USB3,0,15.0,FINESTEERING,2116,116909.27,16777216,0,0,0,1,0,0,0,0,0,0,0,0,0,0,0,0,1,0,0,0,0,0,0,14102,2116,116909.27,48.7962002274,1.98632664731,201.2562,-0.0631,-0.0499,0.0015,-0.491948018,-0.657056814,214.221507536,INS_SOLUTION_GOOD
1595838626942875309,31593,1595838626942372553,/novatel/imu,INSPVAA,USB3,0,15.0,FINESTEERING,2116,116909.28,16777216,0,0,0,1,0,0,0,0,0,0,0,0,0,0,0,0,1,0,0,0,0,0,0,14102,2116,116909.28,48.7962002273,1.98632664721,201.2562,-0.0673,-0.0521,0.001,-0.491549164,-0.655104107,214.221314267,INS_SOLUTION_GOOD
1595838626951070533,31594,1595838626950587058,/novatel/imu,INSPVAA,USB3,0,15.0,FINESTEERING,2116,116909.29,16777216,0,0,0,1,0,0,0,0,0,0,0,0,0,0,0,0,1,0,0,0,0,0,0,14102,2116,116909.29,48.7962002272,1.98632664717,201.2562,-0.0697,-0.054,0.0012,-0.491817817,-0.654822565,214.223221339,INS_SOLUTION_GOOD
1595838626971025112,31595,1595838626970416378,/novatel/imu,INSPVAA,USB3,0,15.0,FINESTEERING,2116,116909.3,16777216,0,0,0,1,0,0,0,0,0,0,0,0,0,0,0,0,1,0,0,0,0,0,0,14102,2116,116909.3,48.7962002274,1.98632664714,201.2562,-0.0715,-0.0563,0.0012,-0.492831511,-0.656206799,214.221922592,INS_SOLUTION_GOOD
1595838626973411162,31596,1595838626972499391,/novatel/imu,INSPVAA,USB3,0,15.0,FINESTEERING,2116,116909.31,16777216,0,0,0,1,0,0,0,0,0,0,0,0,0,0,0,0,1,0,0,0,0,0,0,14102,2116,116909.31,48.7962002272,1.98632664708,201.2562,-0.0754,-0.0586,0.0007,-0.492111139,-0.65435917,214.221947128,INS_SOLUTION_GOOD
1595838626981690182,31597,1595838626981342734,/novatel/imu,INSPVAA,USB3,0,15.0,FINESTEERING,2116,116909.32,16777216,0,0,0,1,0,0,0,0,0,0,0,0,0,0,0,0,1,0,0,0,0,0,0,14102,2116,116909.32,48.7962002272,1.98632664678,201.2562,-0.078,-0.0615,0.0003,-0.494052593,-0.652760267,214.224246205,INS_SOLUTION_GOOD
1595838626992495556,31598,1595838626992038882,/novatel/imu,INSPVAA,USB3,0,15.0,FINESTEERING,2116,116909.33,16777216,0,0,0,1,0,0,0,0,0,0,0,0,0,0,0,0,1,0,0,0,0,0,0,14102,2116,116909.33,48.796200227,1.98632664693,201.2562,-0.082,-0.0631,-0.0003,-0.491747117,-0.651828113,214.222773056,INS_SOLUTION_GOOD
1595838627001996776,31599,1595838627001638285,/novatel/imu,INSPVAA,USB3,0,15.0,FINESTEERING,2116,116909.34,16777216,0,0,0,1,0,0,0,0,0,0,0,0,0,0,0,0,1,0,0,0,0,0,0,14102,2116,116909.34,48.7962002272,1.98632664678,201.2562,-0.0837,-0.0659,-0.0009,-0.493963076,-0.652938408,214.225072168,INS_SOLUTION_GOOD
1595838627019531530,31600,1595838627018831883,/novatel/imu,INSPVAA,USB3,0,15.0,FINESTEERING,2116,116909.35,16777216,0,0,0,1,0,0,0,0,0,0,0,0,0,0,0,0,1,0,0,0,0,0,0,14102,2116,116909.35,48.7962002271,1.98632664681,201.2562,-0.0868,-0.0677,-0.0007,-0.493203715,-0.652590766,214.224259041,INS_SOLUTION_GOOD
1595838627022213878,31601,1595838627021869995,/novatel/imu,INSPVAA,USB3,0,15.0,FINESTEERING,2116,116909.36,16777216,0,0,0,1,0,0,0,0,0,0,0,0,0,0,0,0,1,0,0,0,0,0,0,14102,2116,116909.36,48.796200227,1.98632664664,201.2562,-0.0902,-0.0708,-0.002,-0.493348327,-0.650324856,214.223716588,INS_SOLUTION_GOOD
1595838627045313488,31602,1595838627044464007,/novatel/imu,INSPVAA,USB3,0,15.0,FINESTEERING,2116,116909.37,16777216,0,0,0,1,0,0,0,0,0,0,0,0,0,0,0,0,1,0,0,0,0,0,0,14102,2116,116909.37,48.7962002271,1.98632664663,201.2562,-0.0922,-0.0729,-0.0018,-0.494000345,-0.651263562,214.224236904,INS_SOLUTION_GOOD
1595838627045353724,31603,1595838627044464007,/novatel/imu,INSPVAA,USB3,0,15.0,FINESTEERING,2116,116909.38,16777216,0,0,0,1,0,0,0,0,0,0,0,0,0,0,0,0,1,0,0,0,0,0,0,14102,2116,116909.38,48.7962002268,1.98632664663,201.2562,-0.0962,-0.0751,-0.0017,-0.492245656,-0.648908842,214.22413115,INS_SOLUTION_GOOD
1595838627050679443,31604,1595838627050228255,/novatel/imu,INSPVAA,USB3,0,15.0,FINESTEERING,2116,116909.39,16777216,0,0,0,1,0,0,0,0,0,0,0,0,0,0,0,0,1,0,0,0,0,0,0,14102,2116,116909.39,48.7962002269,1.98632664637,201.2562,-0.0991,-0.0787,-0.002,-0.494761263,-0.64875822,214.223520145,INS_SOLUTION_GOOD
1595838627067817951,31605,1595838627067462636,/novatel/imu,INSPVAA,USB3,0,15.0,FINESTEERING,2116,116909.4,16777216,0,0,0,1,0,0,0,0,0,0,0,0,0,0,0,0,1,0,0,0,0,0,0,14102,2116,116909.4,48.7962002268,1.98632664645,201.2562,-0.1025,-0.0805,-0.0018,-0.493169276,-0.648087016,214.223760476,INS_SOLUTION_GOOD
1595838627071674223,31606,1595838627071111534,/novatel/imu,INSPVAA,USB3,0,15.0,FINESTEERING,2116,116909.41,16777216,0,0,0,1,0,0,0,0,0,0,0,0,0,0,0,0,1,0,0,0,0,0,0,14102,2116,116909.41,48.7962002268,1.98632664636,201.2562,-0.1054,-0.0832,-0.0022,-0.493715167,-0.647859979,214.222004926,INS_SOLUTION_GOOD
1595838627081653569,31607,1595838627081140980,/novatel/imu,INSPVAA,USB3,0,15.0,FINESTEERING,2116,116909.42,16777216,0,0,0,1,0,0,0,0,0,0,0,0,0,0,0,0,1,0,0,0,0,0,0,14102,2116,116909.42,48.7962002266,1.98632664619,201.2562,-0.1088,-0.0857,-0.002,-0.493510462,-0.645138467,214.223167582,INS_SOLUTION_GOOD
1595838627091464099,31608,1595838627090582560,/novatel/imu,INSPVAA,USB3,0,15.0,FINESTEERING,2116,116909.43,16777216,0,0,0,1,0,0,0,0,0,0,0,0,0,0,0,0,1,0,0,0,0,0,0,14102,2116,116909.43,48.7962002266,1.98632664608,201.2562,-0.1112,-0.0881,-0.0008,-0.494506332,-0.645053595,214.221239668,INS_SOLUTION_GOOD
1595838627100687000,31609,1595838627100409376,/novatel/imu,INSPVAA,USB3,0,15.0,FINESTEERING,2116,116909.44,16777216,0,0,0,1,0,0,0,0,0,0,0,0,0,0,0,0,1,0,0,0,0,0,0,14102,2116,116909.44,48.7962002266,1.98632664597,201.2562,-0.1155,-0.0909,-0.0016,-0.494626046,-0.643815811,214.221496048,INS_SOLUTION_GOOD
1595838627122282789,31610,1595838627121765152,/novatel/imu,INSPVAA,USB3,0,15.0,FINESTEERING,2116,116909.45,16777216,0,0,0,1,0,0,0,0,0,0,0,0,0,0,0,0,1,0,0,0,0,0,0,14102,2116,116909.45,48.7962002266,1.9863266461,201.2562,-0.1177,-0.0927,-0.0012,-0.494052115,-0.645407589,214.222642889,INS_SOLUTION_GOOD
1595838627122315970,31611,1595838627121765152,/novatel/imu,INSPVAA,USB3,0,15.0,FINESTEERING,2116,116909.46,16777216,0,0,0,1,0,0,0,0,0,0,0,0,0,0,0,0,1,0,0,0,0,0,0,14102,2116,116909.46,48.7962002264,1.98632664599,201.2562,-0.1223,-0.0956,-0.0009,-0.493013986,-0.642553689,214.221650129,INS_SOLUTION_GOOD
1595838627132140578,31612,1595838627130575335,/novatel/imu,INSPVAA,USB3,0,15.0,FINESTEERING,2116,116909.47,16777216,0,0,0,1,0,0,0,0,0,0,0,0,0,0,0,0,1,0,0,0,0,0,0,14102,2116,116909.47,48.7962002263,1.9863266461,201.2562,-0.1253,-0.0976,-0.001,-0.491855917,-0.642832763,214.220988352,INS_SOLUTION_GOOD
1595838627141227979,31613,1595838627139818601,/novatel/imu,INSPVAA,USB3,0,15.0,FINESTEERING,2116,116909.48,16777216,0,0,0,1,0,0,0,0,0,0,0,0,0,0,0,0,1,0,0,0,0,0,0,14102,2116,116909.48,48.7962002263,1.98632664623,201.2562,-0.128,-0.0997,-0.001,-0.490273804,-0.642897579,214.220437357,INS_SOLUTION_GOOD
1595838627151435098,31614,1595838627151092531,/novatel/imu,INSPVAA,USB3,0,15.0,FINESTEERING,2116,116909.49,16777216,0,0,0,1,0,0,0,0,0,0,0,0,0,0,0,0,1,0,0,0,0,0,0,14102,2116,116909.49,48.7962002263,1.98632664603,201.2562,-0.1308,-0.1029,-0.001,-0.491583219,-0.641977508,214.220250849,INS_SOLUTION_GOOD
1595838627170680583,31615,1595838627170171372,/novatel/imu,INSPVAA,USB3,0,15.0,FINESTEERING,2116,116909.5,16777216,0,0,0,1,0,0,0,0,0,0,0,0,0,0,0,0,1,0,0,0,0,0,0,14102,2116,116909.5,48.7962002262,1.9863266462,201.2562,-0.1341,-0.1047,-0.0009,-0.489842329,-0.642544404,214.220826564,INS_SOLUTION_GOOD
1595838627177091004,31616,1595838627175221479,/novatel/imu,INSPVAA,USB3,0,15.0,FINESTEERING,2116,116909.51,16777216,0,0,0,1,0,0,0,0,0,0,0,0,0,0,0,0,1,0,0,0,0,0,0,14102,2116,116909.51,48.7962002261,1.98632664603,201.2562,-0.1379,-0.1078,-0.0007,-0.49019023,-0.640781841,214.2210334,INS_SOLUTION_GOOD
1595838627180391593,31617,1595838627180093102,/novatel/imu,INSPVAA,USB3,0,15.0,FINESTEERING,2116,116909.52,16777216,0,0,0,1,0,0,0,0,0,0,0,0,0,0,0,0,1,0,0,0,0,0,0,14102,2116,116909.52,48.7962002258,1.98632664618,201.2562,-0.1424,-0.1099,-0.0005,-0.487155999,-0.638997204,214.222160105,INS_SOLUTION_GOOD
1595838627190444777,31618,1595838627190052187,/novatel/imu,INSPVAA,USB3,0,15.0,FINESTEERING,2116,116909.53,16777216,0,0,0,1,0,0,0,0,0,0,0,0,0,0,0,0,1,0,0,0,0,0,0,14102,2116,116909.53,48.7962002259,1.98632664605,201.2562,-0.1447,-0.113,-0.001,-0.48862509,-0.639367071,214.223991338,INS_SOLUTION_GOOD
1595838627200787335,31619,1595838627200363429,/novatel/imu,INSPVAA,USB3,0,15.0,FINESTEERING,2116,116909.54,16777216,0,0,0,1,0,0,0,0,0,0,0,0,0,0,0,0,1,0,0,0,0,0,0,14102,2116,116909.54,48.7962002256,1.98632664638,201.2562,-0.1489,-0.1137,-0.0011,-0.484179249,-0.638470493,214.220887538,INS_SOLUTION_GOOD
1595838627218250407,31620,1595838627217879671,/novatel/imu,INSPVAA,USB3,0,15.0,FINESTEERING,2116,116909.55,16777216,0,0,0,1,0,0,0,0,0,0,0,0,0,0,0,0,1,0,0,0,0,0,0,14102,2116,116909.55,48.7962002256,1.9863266463,201.2562,-0.1508,-0.1164,-0.0004,-0.484421341,-0.638103033,214.223272846,INS_SOLUTION_GOOD
1595838627221634276,31621,1595838627221296128,/novatel/imu,INSPVAA,USB3,0,15.0,FINESTEERING,2116,116909.56,16777216,0,0,0,1,0,0,0,0,0,0,0,0,0,0,0,0,1,0,0,0,0,0,0,14102,2116,116909.56,48.7962002254,1.98632664643,201.2562,-0.1549,-0.1183,-0.0007,-0.481923739,-0.636902595,214.22192036,INS_SOLUTION_GOOD
1595838627232019677,31622,1595838627231217281,/novatel/imu,INSPVAA,USB3,0,15.0,FINESTEERING,2116,116909.57,16777216,0,0,0,1,0,0,0,0,0,0,0,0,0,0,0,0,1,0,0,0,0,0,0,14102,2116,116909.57,48.7962002255,1.98632664655,201.2562,-0.1578,-0.1208,-0.0005,-0.48151956,-0.638577617,214.221539166,INS_SOLUTION_GOOD
1595838627241073831,31623,1595838627240235706,/novatel/imu,INSPVAA,USB3,0,15.0,FINESTEERING,2116,116909.58,16777216,0,0,0,1,0,0,0,0,0,0,0,0,0,0,0,0,1,0,0,0,0,0,0,14102,2116,116909.58,48.7962002253,1.98632664633,201.2562,-0.1623,-0.1248,-0.0012,-0.481918064,-0.636078986,214.223673605,INS_SOLUTION_GOOD
1595838627251652646,31624,1595838627251250766,/novatel/imu,INSPVAA,USB3,0,15.0,FINESTEERING,2116,116909.59,16777216,0,0,0,1,0,0,0,0,0,0,0,0,0,0,0,0,1,0,0,0,0,0,0,14102,2116,116909.59,48.7962002253,1.98632664652,201.2562,-0.1644,-0.1259,-0.0014,-0.480719598,-0.637631177,214.224046457,INS_SOLUTION_GOOD
1595838627268687032,31625,1595838627267953509,/novatel/imu,INSPVAA,USB3,0,15.0,FINESTEERING,2116,116909.6,16777216,0,0,0,1,0,0,0,0,0,0,0,0,0,0,0,0,1,0,0,0,0,0,0,14102,2116,116909.6,48.7962002252,1.98632664654,201.2562,-0.1671,-0.1276,-0.0007,-0.479295397,-0.636723659,214.224927566,INS_SOLUTION_GOOD
1595838627272063741,31626,1595838627271329343,/novatel/imu,INSPVAA,USB3,0,15.0,FINESTEERING,2116,116909.61,16777216,0,0,0,1,0,0,0,0,0,0,0,0,0,0,0,0,1,0,0,0,0,0,0,14102,2116,116909.61,48.7962002249,1.98632664649,201.2562,-0.1713,-0.13,-0.0005,-0.477869863,-0.634226801,214.225254586,INS_SOLUTION_GOOD
1595838627282496458,31627,1595838627281428782,/novatel/imu,INSPVAA,USB3,0,15.0,FINESTEERING,2116,116909.62,16777216,0,0,0,1,0,0,0,0,0,0,0,0,0,0,0,0,1,0,0,0,0,0,0,14102,2116,116909.62,48.796200225,1.98632664657,201.2562,-0.1751,-0.1331,-0.0011,-0.477609835,-0.635608124,214.225621319,INS_SOLUTION_GOOD
1595838627290896401,31628,1595838627290391688,/novatel/imu,INSPVAA,USB3,0,15.0,FINESTEERING,2116,116909.63,16777216,0,0,0,1,0,0,0,0,0,0,0,0,0,0,0,0,1,0,0,0,0,0,0,14102,2116,116909.63,48.7962002249,1.98632664646,201.2562,-0.1795,-0.1365,-0.0022,-0.477689376,-0.634459236,214.225181469,INS_SOLUTION_GOOD
1595838627301728016,31629,1595838627300663314,/novatel/imu,INSPVAA,USB3,0,15.0,FINESTEERING,2116,116909.64,16777216,0,0,0,1,0,0,0,0,0,0,0,0,0,0,0,0,1,0,0,0,0,0,0,14102,2116,116909.64,48.796200225,1.98632664671,201.2562,-0.181,-0.1373,-0.0022,-0.476269961,-0.636710889,214.225708975,INS_SOLUTION_GOOD
1595838627318703925,31630,1595838627317817955,/novatel/imu,INSPVAA,USB3,0,15.0,FINESTEERING,2116,116909.65,16777216,0,0,0,1,0,0,0,0,0,0,0,0,0,0,0,0,1,0,0,0,0,0,0,14102,2116,116909.65,48.7962002246,1.98632664653,201.2562,-0.1846,-0.1394,-0.0006,-0.474915549,-0.63279562,214.227066535,INS_SOLUTION_GOOD
1595838627321020026,31631,1595838627320521750,/novatel/imu,INSPVAA,USB3,0,15.0,FINESTEERING,2116,116909.66,16777216,0,0,0,1,0,0,0,0,0,0,0,0,0,0,0,0,1,0,0,0,0,0,0,14102,2116,116909.66,48.7962002246,1.98632664657,201.2562,-0.1884,-0.1429,0.0,-0.474111125,-0.632730346,214.226418161,INS_SOLUTION_GOOD
1595838627331253681,31632,1595838627330809769,/novatel/imu,INSPVAA,USB3,0,15.0,FINESTEERING,2116,116909.67,16777216,0,0,0,1,0,0,0,0,0,0,0,0,0,0,0,0,1,0,0,0,0,0,0,14102,2116,116909.67,48.7962002244,1.98632664655,201.2562,-0.1939,-0.1463,-0.0017,-0.473318347,-0.631768045,214.227749798,INS_SOLUTION_GOOD
1595838627340710356,31633,1595838627340173348,/novatel/imu,INSPVAA,USB3,0,15.0,FINESTEERING,2116,116909.68,16777216,0,0,0,1,0,0,0,0,0,0,0,0,0,0,0,0,1,0,0,0,0,0,0,14102,2116,116909.68,48.7962002245,1.98632664651,201.2562,-0.1971,-0.1494,-0.0026,-0.47378848,-0.632323436,214.228049147,INS_SOLUTION_GOOD
1595838627351721325,31634,1595838627350969915,/novatel/imu,INSPVAA,USB3,0,15.0,FINESTEERING,2116,116909.69,16777216,0,0,0,1,0,0,0,0,0,0,0,0,0,0,0,0,1,0,0,0,0,0,0,14102,2116,116909.69,48.7962002244,1.98632664639,201.2562,-0.1987,-0.151,-0.0006,-0.474132603,-0.631680813,214.226434606,INS_SOLUTION_GOOD
1595838627369376388,31635,1595838627368955768,/novatel/imu,INSPVAA,USB3,0,15.0,FINESTEERING,2116,116909.7,16777216,0,0,0,1,0,0,0,0,0,0,0,0,0,0,0,0,1,0,0,0,0,0,0,14102,2116,116909.7,48.7962002243,1.98632664639,201.2562,-0.2022,-0.1537,0.0004,-0.473243477,-0.631331415,214.226858434,INS_SOLUTION_GOOD
1595838627372869871,31636,1595838627372507784,/novatel/imu,INSPVAA,USB3,0,15.0,FINESTEERING,2116,116909.71,16777216,0,0,0,1,0,0,0,0,0,0,0,0,0,0,0,0,1,0,0,0,0,0,0,14102,2116,116909.71,48.7962002242,1.98632664613,201.2562,-0.2078,-0.1583,-0.0021,-0.474265822,-0.629405775,214.226449102,INS_SOLUTION_GOOD
1595838627380566083,31637,1595838627380243179,/novatel/imu,INSPVAA,USB3,0,15.0,FINESTEERING,2116,116909.72,16777216,0,0,0,1,0,0,0,0,0,0,0,0,0,0,0,0,1,0,0,0,0,0,0,14102,2116,116909.72,48.7962002242,1.98632664621,201.2562,-0.2127,-0.1614,-0.0049,-0.473466623,-0.630072177,214.227314449,INS_SOLUTION_GOOD
1595838627391470588,31638,1595838627391072432,/novatel/imu,INSPVAA,USB3,0,15.0,FINESTEERING,2116,116909.73,16777216,0,0,0,1,0,0,0,0,0,0,0,0,0,0,0,0,1,0,0,0,0,0,0,14102,2116,116909.73,48.7962002241,1.98632664587,201.2562,-0.2172,-0.1649,-0.0044,-0.475621021,-0.628513092,214.227530092,INS_SOLUTION_GOOD
1595838627400392586,31639,1595838627400003757,/novatel/imu,INSPVAA,USB3,0,15.0,FINESTEERING,2116,116909.74,16777216,0,0,0,1,0,0,0,0,0,0,0,0,0,0,0,0,1,0,0,0,0,0,0,14102,2116,116909.74,48.7962002241,1.98632664567,201.2562,-0.2217,-0.1681,-0.0021,-0.476653405,-0.627585856,214.227867503,INS_SOLUTION_GOOD
1595838627418476677,31640,1595838627417942832,/novatel/imu,INSPVAA,USB3,0,15.0,FINESTEERING,2116,116909.75,16777216,0,0,0,1,0,0,0,0,0,0,0,0,0,0,0,0,1,0,0,0,0,0,0,14102,2116,116909.75,48.7962002242,1.98632664566,201.2562,-0.2247,-0.1697,-0.0024,-0.477087794,-0.629265352,214.227912566,INS_SOLUTION_GOOD
1595838627420754683,31641,1595838627420282539,/novatel/imu,INSPVAA,USB3,0,15.0,FINESTEERING,2116,116909.76,16777216,0,0,0,1,0,0,0,0,0,0,0,0,0,0,0,0,1,0,0,0,0,0,0,14102,2116,116909.76,48.7962002239,1.98632664536,201.2562,-0.2302,-0.1735,-0.0031,-0.477385342,-0.625704568,214.229546677,INS_SOLUTION_GOOD
