%time,field.header.seq,field.header.stamp,field.header.frame_id,field.steering_wheel_angle,field.steering_wheel_angle_cmd,field.steering_wheel_torque,field.speed,field.enabled,field.override,field.timeout,field.fault_wdc,field.fault_bus1,field.fault_bus2,field.fault_calibration,field.fault_power
1595838625503725106,31440,1595838625500572384,,-0.0296705961227,0.0,0.125,0.0,0,0,1,0,0,0,0,0
1595838625529748279,31441,1595838625508202356,,-0.0296705961227,0.0,0.125,0.0,0,0,1,0,0,0,0,0
1595838625530208164,31442,1595838625518482123,,-0.0296705961227,0.0,0.125,0.0,0,0,1,0,0,0,0,0
1595838625530217041,31443,1595838625527537882,,-0.0296705961227,0.0,0.125,0.0,0,0,1,0,0,0,0,0
1595838625538364692,31444,1595838625538109792,,-0.0296705961227,0.0,0.125,0.0,0,0,1,0,0,0,0,0
1595838625551740968,31445,1595838625549576925,,-0.0296705961227,0.0,0.125,0.0,0,0,1,0,0,0,0,0
1595838625568062466,31446,1595838625558535647,,-0.0296705961227,0.0,0.0625,0.0,0,0,1,0,0,0,0,0
1595838625574613473,31447,1595838625571107639,,-0.0296705961227,0.0,0.0625,0.0,0,0,1,0,0,0,0,0
1595838625578778364,31448,1595838625578184268,,-0.0296705961227,0.0,0.0,0.0,0,0,1,0,0,0,0,0
1595838625588282942,31449,1595838625587625142,,-0.0296705961227,0.0,0.0,0.0,0,0,1,0,0,0,0,0
1595838625599460513,31450,1595838625598177352,,-0.0296705961227,0.0,-0.0625,0.0,0,0,1,0,0,0,0,0
1595838625608778623,31451,1595838625608053354,,-0.0296705961227,0.0,-0.0625,0.0,0,0,1,0,0,0,0,0
1595838625619496525,31452,1595838625618174721,,-0.0296705961227,0.0,0.0,0.0,0,0,1,0,0,0,0,0
1595838625628254467,31453,1595838625627555754,,-0.0296705961227,0.0,0.0,0.0,0,0,1,0,0,0,0,0
1595838625638649812,31454,1595838625638150483,,-0.0296705961227,0.0,0.0,0.0,0,0,1,0,0,0,0,0
1595838625648214458,31455,1595838625647531968,,-0.0296705961227,0.0,0.0,0.0,0,0,1,0,0,0,0,0
1595838625658614290,31456,1595838625658156945,,-0.0296705961227,0.0,0.0,0.0,0,0,1,0,0,0,0,0
1595838625668048028,31457,1595838625667555489,,-0.0296705961227,0.0,0.0,0.0,0,0,1,0,0,0,0,0
1595838625678915421,31458,1595838625678169700,,-0.0296705961227,0.0,0.0,0.0,0,0,1,0,0,0,0,0
1595838625687755702,31459,1595838625687534118,,-0.0296705961227,0.0,0.0,0.0,0,0,1,0,0,0,0,0
1595838625705328683,31460,1595838625698201727,,-0.0296705961227,0.0,0.0,0.0,0,0,1,0,0,0,0,0
1595838625707848708,31461,1595838625707533019,,-0.0296705961227,0.0,0.0,0.0,0,0,1,0,0,0,0,0
1595838625718533869,31462,1595838625718156801,,-0.0296705961227,0.0,0.0,0.0,0,0,1,0,0,0,0,0
1595838625728762027,31463,1595838625728271568,,-0.0296705961227,0.0,0.0,0.0,0,0,1,0,0,0,0,0
1595838625738497749,31464,1595838625738155835,,-0.0296705961227,0.0,0.0,0.0,0,0,1,0,0,0,0,0
1595838625747813850,31465,1595838625747536901,,-0.0296705961227,0.0,0.0,0.0,0,0,1,0,0,0,0,0
1595838625762131902,31466,1595838625761169521,,-0.0296705961227,0.0,0.0,0.0,0,0,1,0,0,0,0,0
1595838625768049233,31467,1595838625767771601,,-0.0296705961227,0.0,0.0,0.0,0,0,1,0,0,0,0,0
1595838625780488685,31468,1595838625778317137,,-0.0296705961227,0.0,0.0,0.0,0,0,1,0,0,0,0,0
1595838625788574312,31469,1595838625788350458,,-0.0296705961227,0.0,0.0,0.0,0,0,1,0,0,0,0,0
1595838625798492783,31470,1595838625798156894,,-0.0296705961227,0.0,0.0,0.0,0,0,1,0,0,0,0,0
1595838625807910816,31471,1595838625807534816,,-0.0296705961227,0.0,0.0,0.0,0,0,1,0,0,0,0,0
1595838625818784745,31472,1595838625818382017,,-0.0296705961227,0.0,0.0,0.0,0,0,1,0,0,0,0,0
1595838625828198249,31473,1595838625827700481,,-0.0296705961227,0.0,0.0,0.0,0,0,1,0,0,0,0,0
1595838625838765884,31474,1595838625838337452,,-0.0296705961227,0.0,0.0,0.0,0,0,1,0,0,0,0,0
1595838625848751017,31475,1595838625848351473,,-0.0296705961227,0.0,0.0,0.0,0,0,1,0,0,0,0,0
1595838625862439946,31476,1595838625861328051,,-0.0296705961227,0.0,0.0,0.0,0,0,1,0,0,0,0,0
1595838625867761639,31477,1595838625867533866,,-0.0296705961227,0.0,0.0,0.0,0,0,1,0,0,0,0,0
1595838625878525695,31478,1595838625878171819,,-0.0296705961227,0.0,0.0,0.0,0,0,1,0,0,0,0,0
1595838625888640519,31479,1595838625887565507,,-0.0296705961227,0.0,0.0,0.0,0,0,1,0,0,0,0,0
1595838625898532610,31480,1595838625898131062,,-0.0296705961227,0.0,0.0,0.0,0,0,1,0,0,0,0,0
1595838625908902508,31481,1595838625908488282,,-0.0296705961227,0.0,0.0,0.0,0,0,1,0,0,0,0,0
1595838625919911901,31482,1595838625918195002,,-0.0296705961227,0.0,0.0,0.0,0,0,1,0,0,0,0,0
1595838625932434835,31483,1595838625927538024,,-0.0296705961227,0.0,0.0,0.0,0,0,1,0,0,0,0,0
1595838625938696476,31484,1595838625938454730,,-0.0296705961227,0.0,0.0,0.0,0,0,1,0,0,0,0,0
1595838625948070512,31485,1595838625947609393,,-0.0296705961227,0.0,0.0,0.0,0,0,1,0,0,0,0,0
1595838625958925510,31486,1595838625958209679,,-0.0296705961227,0.0,0.0,0.0,0,0,1,0,0,0,0,0
1595838625967856964,31487,1595838625967561939,,-0.0296705961227,0.0,0.0,0.0,0,0,1,0,0,0,0,0
1595838625986564122,31488,1595838625978173411,,-0.0296705961227,0.0,0.0,0.0,0,0,1,0,0,0,0,0
1595838625991093863,31489,1595838625989437243,,-0.0296705961227,0.0,0.0,0.0,0,0,1,0,0,0,0,0
1595838625998892673,31490,1595838625998596275,,-0.0296705961227,0.0,0.0,0.0,0,0,1,0,0,0,0,0
1595838626008105668,31491,1595838626007832291,,-0.0296705961227,0.0,0.0,0.0,0,0,1,0,0,0,0,0
1595838626020472985,31492,1595838626019975965,,-0.0296705961227,0.0,0.0,0.0,0,0,1,0,0,0,0,0
1595838626030776345,31493,1595838626030526996,,-0.0296705961227,0.0,0.0,0.0,0,0,1,0,0,0,0,0
1595838626038586639,31494,1595838626038182834,,-0.0296705961227,0.0,0.0,0.0,0,0,1,0,0,0,0,0
1595838626048270543,31495,1595838626047565065,,-0.0296705961227,0.0,0.0,0.0,0,0,1,0,0,0,0,0
1595838626060071643,31496,1595838626059743592,,-0.0296705961227,0.0,0.0,0.0,0,0,1,0,0,0,0,0
1595838626067853797,31497,1595838626067536981,,-0.0296705961227,0.0,0.0,0.0,0,0,1,0,0,0,0,0
1595838626095823430,31498,1595838626095419358,,-0.0296705961227,0.0,0.0,0.0,0,0,1,0,0,0,0,0
1595838626099148974,31499,1595838626098465894,,-0.0296705961227,0.0,0.0,0.0,0,0,1,0,0,0,0,0
1595838626099153234,31500,1595838626098518444,,-0.0296705961227,0.0,0.0,0.0,0,0,1,0,0,0,0,0
1595838626109486872,31501,1595838626107632859,,-0.0296705961227,0.0,0.0,0.0,0,0,1,0,0,0,0,0
1595838626119942560,31502,1595838626119518452,,-0.0296705961227,0.0,0.0,0.0,0,0,1,0,0,0,0,0
1595838626128505613,31503,1595838626128155677,,-0.0296705961227,0.0,0.0,0.0,0,0,1,0,0,0,0,0
1595838626140502901,31504,1595838626139980145,,-0.0296705961227,0.0,0.0,0.0,0,0,1,0,0,0,0,0
1595838626149475784,31505,1595838626148508849,,-0.0296705961227,0.0,0.0,0.0,0,0,1,0,0,0,0,0
1595838626160321067,31506,1595838626158726626,,-0.0296705961227,0.0,0.0,0.0,0,0,1,0,0,0,0,0
1595838626168719796,31507,1595838626167865135,,-0.0296705961227,0.0,0.0,0.0,0,0,1,0,0,0,0,0
1595838626183763146,31508,1595838626183035584,,-0.0296705961227,0.0,0.0,0.0,0,0,1,0,0,0,0,0
1595838626191669944,31509,1595838626191261158,,-0.0296705961227,0.0,0.0,0.0,0,0,1,0,0,0,0,0
1595838626205074909,31510,1595838626204037997,,-0.0296705961227,0.0,0.0,0.0,0,0,1,0,0,0,0,0
1595838626210990421,31511,1595838626210176777,,-0.0296705961227,0.0,0.0,0.0,0,0,1,0,0,0,0,0
1595838626224408387,31512,1595838626221335935,,-0.0296705961227,0.0,0.0,0.0,0,0,1,0,0,0,0,0
1595838626227919357,31513,1595838626227711162,,-0.0296705961227,0.0,0.0,0.0,0,0,1,0,0,0,0,0
1595838626238714392,31514,1595838626238165104,,-0.0296705961227,0.0,0.0,0.0,0,0,1,0,0,0,0,0
1595838626251000811,31515,1595838626247619359,,-0.0296705961227,0.0,0.0,0.0,0,0,1,0,0,0,0,0
1595838626258404757,31516,1595838626258169315,,-0.0296705961227,0.0,0.0,0.0,0,0,1,0,0,0,0,0
1595838626267756120,31517,1595838626267543286,,-0.0296705961227,0.0,0.0,0.0,0,0,1,0,0,0,0,0
1595838626278508356,31518,1595838626278254927,,-0.0296705961227,0.0,0.0,0.0,0,0,1,0,0,0,0,0
1595838626288139668,31519,1595838626287556053,,-0.0296705961227,0.0,0.0,0.0,0,0,1,0,0,0,0,0
1595838626308656398,31520,1595838626298200983,,-0.0296705961227,0.0,0.0,0.0,0,0,1,0,0,0,0,0
1595838626308669315,31521,1595838626307569869,,-0.0296705961227,0.0,0.0,0.0,0,0,1,0,0,0,0,0
1595838626318468284,31522,1595838626318170293,,-0.0296705961227,0.0,0.0,0.0,0,0,1,0,0,0,0,0
1595838626327876844,31523,1595838626327553023,,-0.0296705961227,0.0,0.0,0.0,0,0,1,0,0,0,0,0
1595838626340773512,31524,1595838626339024248,,-0.0296705961227,0.0,0.0,0.0,0,0,1,0,0,0,0,0
1595838626348120405,31525,1595838626347605504,,-0.0296705961227,0.0,0.0,0.0,0,0,1,0,0,0,0,0
1595838626359451323,31526,1595838626358310747,,-0.0296705961227,0.0,0.0,0.0,0,0,1,0,0,0,0,0
1595838626368245155,31527,1595838626367535328,,-0.0296705961227,0.0,0.0,0.0,0,0,1,0,0,0,0,0
1595838626379790705,31528,1595838626378260139,,-0.0296705961227,0.0,0.0,0.0,0,0,1,0,0,0,0,0
1595838626390238054,31529,1595838626387593971,,-0.0296705961227,0.0,0.0,0.0,0,0,1,0,0,0,0,0
1595838626399985773,31530,1595838626398194035,,-0.0296705961227,0.0,0.0,0.0,0,0,1,0,0,0,0,0
1595838626407862366,31531,1595838626407607092,,-0.0296705961227,0.0,0.0,0.0,0,0,1,0,0,0,0,0
1595838626418650555,31532,1595838626418212607,,-0.0296705961227,0.0,0.0,0.0,0,0,1,0,0,0,0,0
1595838626427798710,31533,1595838626427547483,,-0.0296705961227,0.0,0.0,0.0,0,0,1,0,0,0,0,0
1595838626438619907,31534,1595838626438188606,,-0.0296705961227,0.0,0.0,0.0,0,0,1,0,0,0,0,0
1595838626447864137,31535,1595838626447580822,,-0.0296705961227,0.0,0.0,0.0,0,0,1,0,0,0,0,0
1595838626460802408,31536,1595838626460266328,,-0.0296705961227,0.0,0.0,0.0,0,0,1,0,0,0,0,0
1595838626468280454,31537,1595838626467995591,,-0.0296705961227,0.0,0.0,0.0,0,0,1,0,0,0,0,0
1595838626478695928,31538,1595838626478236234,,-0.0296705961227,0.0,0.0,0.0,0,0,1,0,0,0,0,0
1595838626488046690,31539,1595838626487799280,,-0.0296705961227,0.0,0.0,0.0,0,0,1,0,0,0,0,0
1595838626498503082,31540,1595838626498199493,,-0.0296705961227,0.0,0.0,0.0,0,0,1,0,0,0,0,0
1595838626514473274,31541,1595838626507619191,,-0.0296705961227,0.0,0.0,0.0,0,0,1,0,0,0,0,0
1595838626520334296,31542,1595838626519591131,,-0.0296705961227,0.0,0.0,0.0,0,0,1,0,0,0,0,0
1595838626529763615,31543,1595838626528457808,,-0.0296705961227,0.0,0.0,0.0,0,0,1,0,0,0,0,0
1595838626539751425,31544,1595838626538474177,,-0.0296705961227,0.0,0.0,0.0,0,0,1,0,0,0,0,0
1595838626551152957,31545,1595838626549079806,,-0.0296705961227,0.0,0.0,0.0,0,0,1,0,0,0,0,0
1595838626558570444,31546,1595838626558203532,,-0.0296705961227,0.0,0.0,0.0,0,0,1,0,0,0,0,0
1595838626572484301,31547,1595838626567867708,,-0.0296705961227,0.0,0.0,0.0,0,0,1,0,0,0,0,0
1595838626580204593,31548,1595838626579678499,,-0.0296705961227,0.0,0.0625,0.0,0,0,1,0,0,0,0,0
1595838626600861203,31549,1595838626599726018,,-0.0296705961227,0.0,0.0625,0.0,0,0,1,0,0,0,0,0
1595838626602829024,31550,1595838626599733817,,-0.0296705961227,0.0,0.0625,0.0,0,0,1,0,0,0,0,0
1595838626607858594,31551,1595838626607620453,,-0.0296705961227,0.0,0.0625,0.0,0,0,1,0,0,0,0,0
1595838626618514385,31552,1595838626618158203,,-0.0296705961227,0.0,0.0625,0.0,0,0,1,0,0,0,0,0
1595838626629247475,31553,1595838626627693257,,-0.0296705961227,0.0,0.0625,0.0,0,0,1,0,0,0,0,0
1595838626640903337,31554,1595838626639500728,,-0.0314159244299,0.0,0.0625,0.0,0,0,1,0,0,0,0,0
1595838626648178251,31555,1595838626647903009,,-0.0314159244299,0.0,0.0625,0.0,0,0,1,0,0,0,0,0
1595838626659093638,31556,1595838626658265180,,-0.0314159244299,0.0,0.0625,0.0,0,0,1,0,0,0,0,0
1595838626667770022,31557,1595838626667573766,,-0.0314159244299,0.0,0.0625,0.0,0,0,1,0,0,0,0,0
1595838626679397354,31558,1595838626678676290,,-0.0314159244299,0.0,0.0625,0.0,0,0,1,0,0,0,0,0
1595838626688742275,31559,1595838626687643014,,-0.0314159244299,0.0,0.0625,0.0,0,0,1,0,0,0,0,0
1595838626698488596,31560,1595838626698177186,,-0.0314159244299,0.0,0.0625,0.0,0,0,1,0,0,0,0,0
1595838626707809025,31561,1595838626707569868,,-0.0331612564623,0.0,0.0625,0.0,0,0,1,0,0,0,0,0
1595838626718412348,31562,1595838626718197549,,-0.0331612564623,0.0,0.0625,0.0,0,0,1,0,0,0,0,0
1595838626727993197,31563,1595838626727612332,,-0.0331612564623,0.0,0.0625,0.0,0,0,1,0,0,0,0,0
1595838626740354831,31564,1595838626739506634,,-0.0331612564623,0.0,0.0625,0.0,0,0,1,0,0,0,0,0
1595838626763579666,31565,1595838626762472998,,-0.0331612564623,0.0,0.0625,0.0,0,0,1,0,0,0,0,0
1595838626763609321,31566,1595838626762485153,,-0.0331612564623,0.0,0.0625,0.0,0,0,1,0,0,0,0,0
1595838626770518471,31567,1595838626768721200,,-0.0331612564623,0.0,0.0625,0.0,0,0,1,0,0,0,0,0
1595838626783935616,31568,1595838626781100818,,-0.0331612564623,0.0,0.0625,0.0,0,0,1,0,0,0,0,0
1595838626792009275,31569,1595838626788229814,,-0.0331612564623,0.0,0.0625,0.0,0,0,1,0,0,0,0,0
1595838626802802616,31570,1595838626798434406,,-0.0349065847695,0.0,0.125,0.0,0,0,1,0,0,0,0,0
1595838626811292333,31571,1595838626807808954,,-0.0349065847695,0.0,0.125,0.0,0,0,1,0,0,0,0,0
1595838626820296420,31572,1595838626818186247,,-0.0349065847695,0.0,0.125,0.0,0,0,1,0,0,0,0,0
1595838626829489788,31573,1595838626828982881,,-0.0349065847695,0.0,0.125,0.0,0,0,1,0,0,0,0,0
1595838626839738369,31574,1595838626839130061,,-0.0349065847695,0.0,0.0625,0.0,0,0,1,0,0,0,0,0
1595838626860629344,31575,1595838626858366516,,-0.0349065847695,0.0,0.0625,0.0,0,0,1,0,0,0,0,0
1595838626860642105,31576,1595838626858376433,,-0.0349065847695,0.0,0.0625,0.0,0,0,1,0,0,0,0,0
1595838626868332408,31577,1595838626867682744,,-0.0349065847695,0.0,0.0625,0.0,0,0,1,0,0,0,0,0
1595838626883308207,31578,1595838626882901906,,-0.0349065847695,0.0,0.0625,0.0,0,0,1,0,0,0,0,0
1595838626892097548,31579,1595838626891587697,,-0.0366519130766,0.0,0.0625,0.0,0,0,1,0,0,0,0,0
1595838626901988553,31580,1595838626901283369,,-0.0366519130766,0.0,0.0625,0.0,0,0,1,0,0,0,0,0
1595838626908194737,31581,1595838626907703687,,-0.0366519130766,0.0,0.0625,0.0,0,0,1,0,0,0,0,0
1595838626919842221,31582,1595838626919539721,,-0.0366519130766,0.0,0.0625,0.0,0,0,1,0,0,0,0,0
1595838626933533717,31583,1595838626932471467,,-0.0366519130766,0.0,0.0625,0.0,0,0,1,0,0,0,0,0
1595838626941735135,31584,1595838626941080323,,-0.0366519130766,0.0,0.0625,0.0,0,0,1,0,0,0,0,0
1595838626956877106,31585,1595838626952978934,,-0.0366519130766,0.0,0.0625,0.0,0,0,1,0,0,0,0,0
1595838626961988282,31586,1595838626958552254,,-0.0366519130766,0.0,0.0625,0.0,0,0,1,0,0,0,0,0
1595838626967769200,31587,1595838626967587692,,-0.0366519130766,0.0,0.0625,0.0,0,0,1,0,0,0,0,0
1595838626978747206,31588,1595838626978426254,,-0.0366519130766,0.0,0.0625,0.0,0,0,1,0,0,0,0,0
1595838626997991921,31589,1595838626994000332,,-0.0366519130766,0.0,0.0625,0.0,0,0,1,0,0,0,0,0
1595838626998741741,31590,1595838626998259399,,-0.0366519130766,0.0,0.0625,0.0,0,0,1,0,0,0,0,0
1595838627007817246,31591,1595838627007609064,,-0.0366519130766,0.0,0.0625,0.0,0,0,1,0,0,0,0,0
1595838627018616959,31592,1595838627018226435,,-0.0366519130766,0.0,0.0625,0.0,0,0,1,0,0,0,0,0
1595838627027794754,31593,1595838627027577419,,-0.0366519130766,0.0,0.0625,0.0,0,0,1,0,0,0,0,0
1595838627055839913,31594,1595838627049957169,,-0.0366519130766,0.0,0.0625,0.0,0,0,1,0,0,0,0,0
1595838627058687830,31595,1595838627049970990,,-0.0366519130766,0.0,0.0625,0.0,0,0,1,0,0,0,0,0
1595838627060893338,31596,1595838627058186993,,-0.0366519130766,0.0,0.0625,0.0,0,0,1,0,0,0,0,0
1595838627071608161,31597,1595838627067721792,,-0.0366519130766,0.0,0.0625,0.0,0,0,1,0,0,0,0,0
1595838627078771811,31598,1595838627078203167,,-0.0366519130766,0.0,0.0,0.0,0,0,1,0,0,0,0,0
1595838627088669122,31599,1595838627087581116,,-0.0366519130766,0.0,0.0,0.0,0,0,1,0,0,0,0,0
1595838627098440793,31600,1595838627098162888,,-0.0366519130766,0.0,-0.0625,0.0,0,0,1,0,0,0,0,0
1595838627112318415,31601,1595838627107578110,,-0.0366519130766,0.0,-0.0625,0.0,0,0,1,0,0,0,0,0
1595838627122799292,31602,1595838627118617726,,-0.0383972451091,0.0,-0.3125,0.0,0,0,1,0,0,0,0,0
1595838627128067887,31603,1595838627127608088,,-0.0383972451091,0.0,-0.3125,0.0,0,0,1,0,0,0,0,0
1595838627138509479,31604,1595838627138159149,,-0.0418879017234,0.0,-0.3125,0.0,0,0,1,0,0,0,0,0
1595838627147861141,31605,1595838627147576138,,-0.0436332300305,0.0,-0.3125,0.0,0,0,1,0,0,0,0,0
1595838627159611084,31606,1595838627158220980,,-0.0471238903701,0.0,-0.375,0.0,0,0,1,0,0,0,0,0
1595838627167897645,31607,1595838627167628338,,-0.0488692186773,0.0,-0.375,0.0,0,0,1,0,0,0,0,0
1595838627178691576,31608,1595838627178154970,,-0.0506145469844,0.0,-0.5,0.0,0,0,1,0,0,0,0,0
1595838627188477535,31609,1595838627187558182,,-0.054105207324,0.0,-0.5,0.0,0,0,1,0,0,0,0,0
1595838627198477070,31610,1595838627198175243,,-0.0558505356312,0.0,-0.4375,0.0,0,0,1,0,0,0,0,0
1595838627207749480,31611,1595838627207556372,,-0.0593411922455,0.0,-0.4375,0.0,0,0,1,0,0,0,0,0
1595838627218691454,31612,1595838627218313958,,-0.0610865242779,0.0,-0.3125,0.0,0,0,1,0,0,0,0,0
1595838627227813977,31613,1595838627227561572,,-0.0610865242779,0.0,-0.3125,0.0,0,0,1,0,0,0,0,0
1595838627242558008,31614,1595838627241675609,,-0.0628318488598,0.0,-0.3125,0.0,0,0,1,0,0,0,0,0
1595838627247771378,31615,1595838627247555865,,-0.0628318488598,0.0,-0.3125,0.0,0,0,1,0,0,0,0,0
1595838627258406416,31616,1595838627258122047,,-0.0628318488598,0.0,-0.3125,0.0,0,0,1,0,0,0,0,0
1595838627269174481,31617,1595838627268813221,,-0.0628318488598,0.0,-0.3125,0.0,0,0,1,0,0,0,0,0
1595838627280096945,31618,1595838627278189656,,-0.0610865242779,0.0,-0.1875,0.0,0,0,1,0,0,0,0,0
1595838627288090649,31619,1595838627287712723,,-0.0610865242779,0.0,-0.1875,0.0,0,0,1,0,0,0,0,0
1595838627299642078,31620,1595838627298992179,,-0.0610865242779,0.0,-0.125,0.0,0,0,1,0,0,0,0,0
1595838627307811130,31621,1595838627307580217,,-0.0610865242779,0.0,-0.125,0.0,0,0,1,0,0,0,0,0
1595838627319291287,31622,1595838627318652922,,-0.0610865242779,0.0,-0.1875,0.0,0,0,1,0,0,0,0,0
1595838627327824713,31623,1595838627327557708,,-0.0610865242779,0.0,-0.1875,0.0,0,0,1,0,0,0,0,0
1595838627339061367,31624,1595838627338207908,,-0.0610865242779,0.0,-0.25,0.0,0,0,1,0,0,0,0,0
1595838627347830804,31625,1595838627347609571,,-0.0610865242779,0.0,-0.25,0.0,0,0,1,0,0,0,0,0
1595838627358659105,31626,1595838627358166210,,-0.0610865242779,0.0,-0.375,0.0,0,0,1,0,0,0,0,0
1595838627368418838,31627,1595838627368052263,,-0.0610865242779,0.0,-0.375,0.0,0,0,1,0,0,0,0,0
1595838627378445637,31628,1595838627378187347,,-0.0628318488598,0.0,-0.4375,0.0,0,0,1,0,0,0,0,0
1595838627388426722,31629,1595838627387560984,,-0.0628318488598,0.0,-0.4375,0.0,0,0,1,0,0,0,0,0
1595838627398839308,31630,1595838627398322464,,-0.0645771846175,0.0,-0.5625,0.0,0,0,1,0,0,0,0,0
1595838627407950229,31631,1595838627407610112,,-0.0645771846175,0.0,-0.5625,0.0,0,0,1,0,0,0,0,0
1595838627419071615,31632,1595838627418506193,,-0.0663225129247,0.0,-0.5625,0.0,0,0,1,0,0,0,0,0
1595838627427935328,31633,1595838627427581202,,-0.0663225129247,0.0,-0.5625,0.0,0,0,1,0,0,0,0,0
1595838627438490975,31634,1595838627438203342,,-0.0680678412318,0.0,-0.5625,0.0,0,0,1,0,0,0,0,0
1595838627449117095,31635,1595838627448699408,,-0.069813169539,0.0,-0.5625,0.0,0,0,1,0,0,0,0,0
1595838627458425195,31636,1595838627458160381,,-0.069813169539,0.0,-0.625,0.0,0,0,1,0,0,0,0,0
1595838627467856554,31637,1595838627467626316,,-0.0715584978461,0.0,-0.625,0.0,0,0,1,0,0,0,0,0
1595838627488020134,31638,1595838627482531794,,-0.0715584978461,0.0,-0.5625,0.0,0,0,1,0,0,0,0,0
1595838627495517209,31639,1595838627492430854,,-0.0715584978461,0.0,-0.5625,0.0,0,0,1,0,0,0,0,0
1595838627498763599,31640,1595838627498465963,,-0.0715584978461,0.0,-0.5625,0.0,0,0,1,0,0,0,0,0
1595838627508417907,31641,1595838627507674252,,-0.0715584978461,0.0,-0.5625,0.0,0,0,1,0,0,0,0,0
1595838627518481849,31642,1595838627518189379,,-0.0715584978461,0.0,-0.5625,0.0,0,0,1,0,0,0,0,0
1595838627537999346,31643,1595838627533154386,,-0.0715584978461,0.0,-0.5625,0.0,0,0,1,0,0,0,0,0
1595838627538589118,31644,1595838627538192892,,-0.0715584978461,0.0,-0.5625,0.0,0,0,1,0,0,0,0,0
1595838627548057969,31645,1595838627547797245,,-0.0715584978461,0.0,-0.5625,0.0,0,0,1,0,0,0,0,0
1595838627559144045,31646,1595838627558675627,,-0.0715584978461,0.0,-0.5,0.0,0,0,1,0,0,0,0,0
1595838627568113110,31647,1595838627567759792,,-0.0715584978461,0.0,-0.5,0.216666668653,0,0,1,0,0,0,0,0
1595838627578706618,31648,1595838627578218965,,-0.0715584978461,0.0,-0.5,0.233333334327,0,0,1,0,0,0,0,0
1595838627588099147,31649,1595838627587786210,,-0.0715584978461,0.0,-0.5,0.247222229838,0,0,1,0,0,0,0,0
1595838627598516213,31650,1595838627598298289,,-0.0715584978461,0.0,-0.5,0.258333325386,0,0,1,0,0,0,0,0
1595838627608204376,31651,1595838627607829418,,-0.0715584978461,0.0,-0.5,0.269444465637,0,0,1,0,0,0,0,0
1595838627618635060,31652,1595838627618170700,,-0.0715584978461,0.0,-0.5625,0.283333331347,0,0,1,0,0,0,0,0
1595838627627749886,31653,1595838627627565491,,-0.0715584978461,0.0,-0.5625,0.294444441795,0,0,1,0,0,0,0,0
1595838627638455451,31654,1595838627638146508,,-0.0715584978461,0.0,-0.5625,0.305555552244,0,0,1,0,0,0,0,0
1595838627647785900,31655,1595838627647582206,,-0.0715584978461,0.0,-0.5625,0.316666662693,0,0,1,0,0,0,0,0
1595838627658483101,31656,1595838627658152391,,-0.0733038261533,0.0,-0.5,0.327777773142,0,0,1,0,0,0,0,0
1595838627668297154,31657,1595838627667758821,,-0.0733038261533,0.0,-0.5,0.338888883591,0,0,1,0,0,0,0,0
1595838627678753352,31658,1595838627678447586,,-0.0733038261533,0.0,-0.5625,0.347222238779,0,0,1,0,0,0,0,0
1595838627687824538,31659,1595838627687593677,,-0.0733038261533,0.0,-0.5625,0.355555564165,0,0,1,0,0,0,0,0
1595838627699965184,31660,1595838627698410386,,-0.0733038261533,0.0,-0.5625,0.363888889551,0,0,1,0,0,0,0,0
1595838627707969320,31661,1595838627707599132,,-0.0733038261533,0.0,-0.5625,0.37222224474,0,0,1,0,0,0,0,0
1595838627725238406,31662,1595838627718755960,,-0.0733038261533,0.0,-0.5625,0.380555570126,0,0,1,0,0,0,0,0
1595838627730032002,31663,1595838627727589800,,-0.0733038261533,0.0,-0.5625,0.391666680574,0,0,1,0,0,0,0,0
1595838627738709961,31664,1595838627738397771,,-0.0750491544604,0.0,-0.625,0.40000000596,0,0,1,0,0,0,0,0
1595838627750087701,31665,1595838627749228552,,-0.0767944902182,0.0,-0.625,0.405555576086,0,0,1,0,0,0,0,0
1595838627762080274,31666,1595838627758896602,,-0.0767944902182,0.0,-0.5,0.413888901472,0,0,1,0,0,0,0,0
1595838627768788508,31667,1595838627768271969,,-0.0785398185253,0.0,-0.5,0.425000011921,0,0,1,0,0,0,0,0
1595838627783301628,31668,1595838627779739168,,-0.0785398185253,0.0,-0.625,0.433333337307,0,0,1,0,0,0,0,0
1595838627811738684,31669,1595838627796892748,,-0.0785398185253,0.0,-0.625,0.444444447756,0,0,1,0,0,0,0,0
1595838627811779961,31670,1595838627798378755,,-0.0802851468325,0.0,-0.5625,0.452777802944,0,0,1,0,0,0,0,0
1595838627811817511,31671,1595838627807584159,,-0.0820304751396,0.0,-0.5625,0.46111112833,0,0,1,0,0,0,0,0
1595838627818565283,31672,1595838627818254329,,-0.0820304751396,0.0,-0.625,0.469444453716,0,0,1,0,0,0,0,0
1595838627832548042,31673,1595838627827622936,,-0.0837758034468,0.0,-0.625,0.480555564165,0,0,1,0,0,0,0,0
1595838627838708104,31674,1595838627838191339,,-0.0837758034468,0.0,-0.5625,0.486111134291,0,0,1,0,0,0,0,0
1595838627848296425,31675,1595838627847667120,,-0.0855211317539,0.0,-0.5625,0.5,0,0,1,0,0,0,0,0
1595838627858671441,31676,1595838627858421730,,-0.0855211317539,0.0,-0.5625,0.508333325386,0,0,1,0,0,0,0,0
1595838627867975640,31677,1595838627867717390,,-0.0855211317539,0.0,-0.5625,0.519444465637,0,0,1,0,0,0,0,0
1595838627878700321,31678,1595838627878210659,,-0.0855211317539,0.0,-0.625,0.527777791023,0,0,1,0,0,0,0,0
1595838627887932603,31679,1595838627887719575,,-0.0872664600611,0.0,-0.625,0.536111116409,0,0,1,0,0,0,0,0
1595838627899753415,31680,1595838627898236748,,-0.0872664600611,0.0,-0.5625,0.54722225666,0,0,1,0,0,0,0,0
1595838627910650111,31681,1595838627907800420,,-0.0872664600611,0.0,-0.5625,0.555555582047,0,0,1,0,0,0,0,0
1595838627921219246,31682,1595838627918198057,,-0.0872664600611,0.0,-0.5625,0.563888907433,0,0,1,0,0,0,0,0
1595838627928208755,31683,1595838627927943310,,-0.0872664600611,0.0,-0.5625,0.574999988079,0,0,1,0,0,0,0,0
1595838627938651057,31684,1595838627938177407,,-0.0890117883682,0.0,-0.5625,0.58333337307,0,0,1,0,0,0,0,0
1595838627948215953,31685,1595838627947993030,,-0.0890117883682,0.0,-0.5625,0.594444453716,0,0,1,0,0,0,0,0
1595838627958746092,31686,1595838627958183211,,-0.0890117883682,0.0,-0.5625,0.602777779102,0,0,1,0,0,0,0,0
1595838627968639003,31687,1595838627967570758,,-0.0890117883682,0.0,-0.5625,0.613888919353,0,0,1,0,0,0,0,0
1595838627981166818,31688,1595838627980385894,,-0.0890117883682,0.0,-0.5,0.62222224474,0,0,1,0,0,0,0,0
1595838627987921127,31689,1595838627987610866,,-0.0890117883682,0.0,-0.5,0.627777814865,0,0,1,0,0,0,0,0
1595838628001176716,31690,1595838627998233516,,-0.0890117883682,0.0,-0.5,0.638888895512,0,0,1,0,0,0,0,0
1595838628011889505,31691,1595838628009786216,,-0.0890117883682,0.0,-0.5,0.652777791023,0,0,1,0,0,0,0,0
1595838628019359098,31692,1595838628018325054,,-0.0907571166754,0.0,-0.5,0.663888931274,0,0,1,0,0,0,0,0
1595838628028836304,31693,1595838628027993407,,-0.0907571166754,0.0,-0.5,0.675000011921,0,0,1,0,0,0,0,0
1595838628038851678,31694,1595838628038184407,,-0.0907571166754,0.0,-0.5,0.683333337307,0,0,1,0,0,0,0,0
1595838628048116353,31695,1595838628047595589,,-0.0907571166754,0.0,-0.5,0.697222232819,0,0,1,0,0,0,0,0
1595838628059060847,31696,1595838628058613439,,-0.0907571166754,0.0,-0.4375,0.705555558205,0,0,1,0,0,0,0,0
1595838628067865106,31697,1595838628067598794,,-0.0907571166754,0.0,-0.4375,0.716666698456,0,0,1,0,0,0,0,0
1595838628078795965,31698,1595838628078225330,,-0.0907571166754,0.0,-0.5,0.727777779102,0,0,1,0,0,0,0,0
1595838628087930729,31699,1595838628087649239,,-0.0907571166754,0.0,-0.5,0.738888919353,0,0,1,0,0,0,0,0
1595838628098932349,31700,1595838628098447286,,-0.0907571166754,0.0,-0.5,0.74722224474,0,0,1,0,0,0,0,0
1595838628110728950,31701,1595838628107599962,,-0.0907571166754,0.0,-0.5,0.758333325386,0,0,1,0,0,0,0,0
1595838628118509841,31702,1595838628118178456,,-0.0907571166754,0.0,-0.4375,0.769444465637,0,0,1,0,0,0,0,0
1595838628128358814,31703,1595838628127635181,,-0.0907571166754,0.0,-0.4375,0.783333361149,0,0,1,0,0,0,0,0
1595838628138463464,31704,1595838628138222533,,-0.0907571166754,0.0,-0.5,0.794444441795,0,0,1,0,0,0,0,0
1595838628147928981,31705,1595838628147612389,,-0.0907571166754,0.0,-0.5,0.805555582047,0,0,1,0,0,0,0,0
1595838628158498312,31706,1595838628158225138,,-0.0907571166754,0.0,-0.5,0.816666662693,0,0,1,0,0,0,0,0
1595838628167802855,31707,1595838628167606569,,-0.0907571166754,0.0,-0.5,0.830555558205,0,0,1,0,0,0,0,0
1595838628178544269,31708,1595838628178205943,,-0.0907571166754,0.0,-0.4375,0.838888883591,0,0,1,0,0,0,0,0
1595838628187849246,31709,1595838628187578626,,-0.0907571166754,0.0,-0.4375,0.850000023842,0,0,1,0,0,0,0,0
1595838628199499056,31710,1595838628198190375,,-0.0907571166754,0.0,-0.4375,0.858333349228,0,0,1,0,0,0,0,0
1595838628209641778,31711,1595838628207666235,,-0.0907571166754,0.0,-0.4375,0.87222224474,0,0,1,0,0,0,0,0
1595838628218769719,31712,1595838628218164485,,-0.0907571166754,0.0,-0.4375,0.880555570126,0,0,1,0,0,0,0,0
1595838628228192073,31713,1595838628227820237,,-0.0907571166754,0.0,-0.4375,0.894444465637,0,0,1,0,0,0,0,0
1595838628238565518,31714,1595838628238231942,,-0.0907571166754,0.0,-0.4375,0.905555605888,0,0,1,0,0,0,0,0
1595838628248503869,31715,1595838628247629089,,-0.0907571166754,0.0,-0.4375,0.919444441795,0,0,1,0,0,0,0,0
1595838628267701832,31716,1595838628258197280,,-0.0907571166754,0.0,-0.5,0.930555582047,0,0,1,0,0,0,0,0
1595838628269803593,31717,1595838628268126892,,-0.0907571166754,0.0,-0.5,0.941666662693,0,0,1,0,0,0,0,0
1595838628279361142,31718,1595838628278237513,,-0.0925024524331,0.0,-0.5,0.952777802944,0,0,1,0,0,0,0,0
1595838628289918059,31719,1595838628287716668,,-0.0925024524331,0.0,-0.5,0.963888883591,0,0,1,0,0,0,0,0
1595838628300432438,31720,1595838628298227614,,-0.0925024524331,0.0,-0.5,0.975000023842,0,0,1,0,0,0,0,0
1595838628307966232,31721,1595838628307636358,,-0.0925024524331,0.0,-0.5,0.988888919353,0,0,1,0,0,0,0,0
1595838628319092489,31722,1595838628318413747,,-0.0925024524331,0.0,-0.5,1.0,0,0,1,0,0,0,0,0
1595838628327915450,31723,1595838628327608124,,-0.0925024524331,0.0,-0.5,1.01111114025,0,0,1,0,0,0,0,0
1595838628344427800,31724,1595838628338217626,,-0.0925024524331,0.0,-0.5,1.0222222805,0,0,1,0,0,0,0,0
1595838628348479128,31725,1595838628347860049,,-0.0925024524331,0.0,-0.5,1.03333330154,0,0,1,0,0,0,0,0
1595838628362072930,31726,1595838628358243469,,-0.0925024524331,0.0,-0.5,1.0444444418,0,0,1,0,0,0,0,0
1595838628367826875,31727,1595838628367650672,,-0.0942477807403,0.0,-0.5,1.05833339691,0,0,1,0,0,0,0,0
1595838628381657373,31728,1595838628380721069,,-0.0925024524331,0.0,-0.4375,1.06944441795,0,0,1,0,0,0,0,0
1595838628388013414,31729,1595838628387716852,,-0.0942477807403,0.0,-0.4375,1.08333337307,0,0,1,0,0,0,0,0
1595838628401907274,31730,1595838628398234566,,-0.0925024524331,0.0,-0.5,1.09166669846,0,0,1,0,0,0,0,0
1595838628414179520,31731,1595838628412315504,,-0.0942477807403,0.0,-0.5,1.10555553436,0,0,1,0,0,0,0,0
1595838628418566284,31732,1595838628418195155,,-0.0942477807403,0.0,-0.4375,1.11666667461,0,0,1,0,0,0,0,0
1595838628431654253,31733,1595838628427616991,,-0.0942477807403,0.0,-0.4375,1.13055562973,0,0,1,0,0,0,0,0
1595838628438701885,31734,1595838628438229850,,-0.0942477807403,0.0,-0.375,1.14166665077,0,0,1,0,0,0,0,0
1595838628447856495,31735,1595838628447631375,,-0.0942477807403,0.0,-0.375,1.15277779102,0,0,1,0,0,0,0,0
1595838628459309844,31736,1595838628458920372,,-0.0942477807403,0.0,-0.4375,1.16388893127,0,0,1,0,0,0,0,0
1595838628472801652,31737,1595838628467617496,,-0.0942477807403,0.0,-0.4375,1.17500007153,0,0,1,0,0,0,0,0
1595838628484783780,31738,1595838628478206744,,-0.0942477807403,0.0,-0.4375,1.18611109257,0,0,1,0,0,0,0,0
1595838628488021505,31739,1595838628487692043,,-0.0942477807403,0.0,-0.4375,1.19722223282,0,0,1,0,0,0,0,0
1595838628501949517,31740,1595838628501001538,,-0.0942477807403,0.0,-0.4375,1.20833337307,0,0,1,0,0,0,0,0
1595838628507881033,31741,1595838628507673833,,-0.0942477807403,0.0,-0.4375,1.22222220898,0,0,1,0,0,0,0,0
1595838628519690921,31742,1595838628518215302,,-0.0942477807403,0.0,-0.375,1.23333334923,0,0,1,0,0,0,0,0
1595838628527900497,31743,1595838628527607320,,-0.0942477807403,0.0,-0.375,1.24444448948,0,0,1,0,0,0,0,0
1595838628540882306,31744,1595838628538213546,,-0.0942477807403,0.0,-0.4375,1.25555562973,0,0,1,0,0,0,0,0
1595838628547927769,31745,1595838628547588582,,-0.0942477807403,0.0,-0.4375,1.26944446564,0,0,1,0,0,0,0,0
1595838628558665353,31746,1595838628558214129,,-0.0942477807403,0.0,-0.375,1.28055560589,0,0,1,0,0,0,0,0
1595838628570253676,31747,1595838628568555340,,-0.0942477807403,0.0,-0.375,1.29166674614,0,0,1,0,0,0,0,0
1595838628579458740,31748,1595838628578268611,,-0.0942477807403,0.0,-0.375,1.30277776718,0,0,1,0,0,0,0,0
1595838628593397023,31749,1595838628587620891,,-0.0942477807403,0.0,-0.375,1.31111109257,0,0,1,0,0,0,0,0
1595838628598711051,31750,1595838628598183980,,-0.0942477807403,0.0,-0.375,1.32222223282,0,0,1,0,0,0,0,0
1595838628611259756,31751,1595838628607721060,,-0.0942477807403,0.0,-0.375,1.33611118793,0,0,1,0,0,0,0,0
1595838628618664811,31752,1595838628618390594,,-0.0942477807403,0.0,-0.25,1.34722220898,0,0,1,0,0,0,0,0
1595838628627810174,31753,1595838628627577125,,-0.0942477807403,0.0,-0.25,1.36111116409,0,0,1,0,0,0,0,0
1595838628638569396,31754,1595838628638240841,,-0.0942477807403,0.0,-0.25,1.37222230434,0,0,1,0,0,0,0,0
1595838628647878922,31755,1595838628647623785,,-0.0942477807403,0.0,-0.25,1.38333332539,0,0,1,0,0,0,0,0
1595838628667153012,31756,1595838628658260615,,-0.0942477807403,0.0,-0.1875,1.39444446564,0,0,1,0,0,0,0,0
1595838628669165815,31757,1595838628668906014,,-0.0942477807403,0.0,-0.1875,1.40555560589,0,0,1,0,0,0,0,0
1595838628679525146,31758,1595838628678233303,,-0.0925024524331,0.0,-0.0625,1.41666674614,0,0,1,0,0,0,0,0
1595838628688278319,31759,1595838628687692392,,-0.0925024524331,0.0,-0.0625,1.43055558205,0,0,1,0,0,0,0,0
1595838628702035124,31760,1595838628698235180,,-0.0907571166754,0.0,-0.0625,1.4416667223,0,0,1,0,0,0,0,0
1595838628715017841,31761,1595838628707623561,,-0.0907571166754,0.0,-0.0625,1.45277786255,0,0,1,0,0,0,0,0
1595838628719153593,31762,1595838628718299061,,-0.0907571166754,0.0,-0.0625,1.46111118793,0,0,1,0,0,0,0,0
1595838628727937749,31763,1595838628727621751,,-0.0890117883682,0.0,-0.0625,1.47500002384,0,0,1,0,0,0,0,0
1595838628742930890,31764,1595838628739113384,,-0.0872664600611,0.0,-0.0625,1.48611116409,0,0,1,0,0,0,0,0
1595838628748253086,31765,1595838628747596378,,-0.0855211317539,0.0,-0.0625,1.49722230434,0,0,1,0,0,0,0,0
1595838628759487984,31766,1595838628758236011,,-0.0855211317539,0.0,0.0625,1.50833332539,0,0,1,0,0,0,0,0
1595838628768201811,31767,1595838628767945444,,-0.0837758034468,0.0,0.0625,1.5222222805,0,0,1,0,0,0,0,0
1595838628779102670,31768,1595838628778226392,,-0.0837758034468,0.0,0.1875,1.53333342075,0,0,1,0,0,0,0,0
1595838628789023421,31769,1595838628787817964,,-0.0820304751396,0.0,0.1875,1.54722225666,0,0,1,0,0,0,0,0
1595838628799343387,31770,1595838628798264169,,-0.0802851468325,0.0,0.1875,1.55833339691,0,0,1,0,0,0,0,0
1595838628810557811,31771,1595838628807605099,,-0.0785398185253,0.0,0.1875,1.56944453716,0,0,1,0,0,0,0,0
1595838628818479060,31772,1595838628818204443,,-0.0785398185253,0.0,0.1875,1.5805555582,0,0,1,0,0,0,0,0
1595838628827913097,31773,1595838628827628580,,-0.0785398185253,0.0,0.1875,1.58888888359,0,0,1,0,0,0,0,0
1595838628838409226,31774,1595838628838189802,,-0.0767944902182,0.0,0.1875,1.60000002384,0,0,1,0,0,0,0,0
1595838628848233027,31775,1595838628847639191,,-0.0750491544604,0.0,0.1875,1.61111116409,0,0,1,0,0,0,0,0
1595838628858757110,31776,1595838628858181709,,-0.0733038261533,0.0,0.1875,1.61944448948,0,0,1,0,0,0,0,0
1595838628868113779,31777,1595838628867724162,,-0.0715584978461,0.0,0.1875,1.63055562973,0,0,1,0,0,0,0,0
1595838628878747308,31778,1595838628878235059,,-0.069813169539,0.0,0.1875,1.63888895512,0,0,1,0,0,0,0,0
1595838628888330196,31779,1595838628887612523,,-0.0663225129247,0.0,0.1875,1.65277779102,0,0,1,0,0,0,0,0
1595838628898742781,31780,1595838628898223808,,-0.0645771846175,0.0,0.1875,1.66388893127,0,0,1,0,0,0,0,0
1595838628907811643,31781,1595838628907609485,,-0.0628318488598,0.0,0.1875,1.67222225666,0,0,1,0,0,0,0,0
1595838628918500700,31782,1595838628918240412,,-0.0610865242779,0.0,0.1875,1.68055558205,0,0,1,0,0,0,0,0
1595838628930952305,31783,1595838628928022511,,-0.0575958639383,0.0,0.1875,1.6916667223,0,0,1,0,0,0,0,0
1595838628938691065,31784,1595838628938242769,,-0.054105207324,0.0,0.125,1.70000004768,0,0,1,0,0,0,0,0
1595838628949939940,31785,1595838628947663586,,-0.0523598790169,0.0,0.125,1.70833337307,0,0,1,0,0,0,0,0
1595838628958810280,31786,1595838628958212740,,-0.0488692186773,0.0,0.125,1.71666669846,0,0,1,0,0,0,0,0
1595838628968354588,31787,1595838628967869396,,-0.0471238903701,0.0,0.125,1.72500002384,0,0,1,0,0,0,0,0
1595838628978546462,31788,1595838628978254481,,-0.0436332300305,0.0,0.125,1.73333334923,0,0,1,0,0,0,0,0
1595838628991378922,31789,1595838628987771444,,-0.0401425734162,0.0,0.125,1.74444448948,0,0,1,0,0,0,0,0
1595838628998530461,31790,1595838628998238686,,-0.0366519130766,0.0,0.125,1.75277781487,0,0,1,0,0,0,0,0
1595838629009296577,31791,1595838629008508452,,-0.0349065847695,0.0,0.125,1.76111114025,0,0,1,0,0,0,0,0
1595838629018505104,31792,1595838629018236706,,-0.0314159244299,0.0,0.125,1.7722222805,0,0,1,0,0,0,0,0
1595838629032444501,31793,1595838629027712510,,-0.0296705961227,0.0,0.125,1.78055560589,0,0,1,0,0,0,0,0
1595838629038590967,31794,1595838629038259167,,-0.0279252678156,0.0,0.1875,1.78888893127,0,0,1,0,0,0,0,0
1595838629048494105,31795,1595838629047626342,,-0.0261799395084,0.0,0.1875,1.80000007153,0,0,1,0,0,0,0,0
1595838629059269297,31796,1595838629058252874,,-0.0244346093386,0.0,0.25,1.80833339691,0,0,1,0,0,0,0,0
1595838629068874784,31797,1595838629067639973,,-0.0226892791688,0.0,0.25,1.81944453716,0,0,1,0,0,0,0,0
1595838629078711049,31798,1595838629078250967,,-0.0226892791688,0.0,0.1875,1.82777786255,0,0,1,0,0,0,0,0
1595838629087856583,31799,1595838629087614463,,-0.0209439508617,0.0,0.1875,1.83888888359,0,0,1,0,0,0,0,0
1595838629098820108,31800,1595838629098235634,,-0.0209439508617,0.0,0.1875,1.84722220898,0,0,1,0,0,0,0,0
1595838629108090687,31801,1595838629107610925,,-0.0209439508617,0.0,0.1875,1.85833334923,0,0,1,0,0,0,0,0
1595838629118684854,31802,1595838629118214035,,-0.0209439508617,0.0,0.125,1.86666667461,0,0,1,0,0,0,0,0
1595838629129919082,31803,1595838629127631423,,-0.0191986225545,0.0,0.125,1.87777781487,0,0,1,0,0,0,0,0
1595838629139226460,31804,1595838629138189632,,-0.0191986225545,0.0,0.0625,1.88611114025,0,0,1,0,0,0,0,0
1595838629147856032,31805,1595838629147614926,,-0.0191986225545,0.0,0.0625,1.8972222805,0,0,1,0,0,0,0,0
1595838629158440988,31806,1595838629158187617,,-0.0191986225545,0.0,0.0625,1.90833342075,0,0,1,0,0,0,0,0
1595838629167906785,31807,1595838629167610803,,-0.0191986225545,0.0,0.0625,1.91666674614,0,0,1,0,0,0,0,0
1595838629178457891,31808,1595838629178194590,,-0.0191986225545,0.0,0.0625,1.92777776718,0,0,1,0,0,0,0,0
1595838629187881519,31809,1595838629187611289,,-0.0191986225545,0.0,0.0625,1.93611121178,0,0,1,0,0,0,0,0
1595838629198516210,31810,1595838629198200419,,-0.0191986225545,0.0,0.0625,1.94444453716,0,0,1,0,0,0,0,0
1595838629208332584,31811,1595838629207634195,,-0.0209439508617,0.0,0.0625,1.95277786255,0,0,1,0,0,0,0,0
1595838629227693131,31812,1595838629224120585,,-0.0209439508617,0.0,0.0625,1.96111118793,0,0,1,0,0,0,0,0
1595838629228061301,31813,1595838629227635426,,-0.0209439508617,0.0,0.0625,1.97222232819,0,0,1,0,0,0,0,0
1595838629239122515,31814,1595838629238192580,,-0.0191986225545,0.0,0.0625,1.98055565357,0,0,1,0,0,0,0,0
1595838629249193182,31815,1595838629248328527,,-0.0191986225545,0.0,0.0625,1.98888897896,0,0,1,0,0,0,0,0
1595838629258642938,31816,1595838629258227042,,-0.0191986225545,0.0,0.125,1.99722230434,0,0,1,0,0,0,0,0
1595838629268672525,31817,1595838629267640998,,-0.0191986225545,0.0,0.125,2.0083334446,0,0,1,0,0,0,0,0
1595838629278860556,31818,1595838629278242963,,-0.0191986225545,0.0,0.0625,2.01388883591,0,0,1,0,0,0,0,0
1595838629287872750,31819,1595838629287640097,,-0.0191986225545,0.0,0.0625,2.0222222805,0,0,1,0,0,0,0,0
1595838629298458908,31820,1595838629298235481,,-0.0191986225545,0.0,0.0625,2.03055548668,0,0,1,0,0,0,0,0
1595838629308067378,31821,1595838629307668679,,-0.0191986225545,0.0,0.0625,2.03611111641,0,0,1,0,0,0,0,0
1595838629318851357,31822,1595838629318355696,,-0.0191986225545,0.0,0.125,2.044444561,0,0,1,0,0,0,0,0
1595838629327997229,31823,1595838629327668843,,-0.0191986225545,0.0,0.125,2.05277776718,0,0,1,0,0,0,0,0
1595838629338638485,31824,1595838629338227808,,-0.0174532923847,0.0,0.125,2.05833339691,0,0,1,0,0,0,0,0
1595838629349926679,31825,1595838629349308058,,-0.0174532923847,0.0,0.125,2.06944441795,0,0,1,0,0,0,0,0
1595838629360190622,31826,1595838629359397959,,-0.0174532923847,0.0,0.125,2.07777786255,0,0,1,0,0,0,0,0
1595838629371191822,31827,1595838629367636464,,-0.0157079622149,0.0,0.125,2.08611106873,0,0,1,0,0,0,0,0
1595838629392508970,31828,1595838629381427574,,-0.0157079622149,0.0,0.125,2.09166669846,0,0,1,0,0,0,0,0
1595838629393163803,31829,1595838629387646742,,-0.0157079622149,0.0,0.125,2.10000014305,0,0,1,0,0,0,0,0
1595838629398656210,31830,1595838629398345854,,-0.0139626339078,0.0,0.0625,2.10833334923,0,0,1,0,0,0,0,0
1595838629407996654,31831,1595838629407647672,,-0.0139626339078,0.0,0.0625,2.11666679382,0,0,1,0,0,0,0,0
1595838629418633277,31832,1595838629418203382,,-0.0122173046693,0.0,0.125,2.12222218513,0,0,1,0,0,0,0,0
1595838629427875991,31833,1595838629427616076,,-0.0122173046693,0.0,0.125,2.13055562973,0,0,1,0,0,0,0,0
1595838629440202640,31834,1595838629438311874,,-0.0122173046693,0.0,0.125,2.13611125946,0,0,1,0,0,0,0,0
1595838629447841556,31835,1595838629447616852,,-0.0104719754308,0.0,0.125,2.14444446564,0,0,1,0,0,0,0,0
1595838629458842452,31836,1595838629458282581,,-0.00872664619237,0.0,0.1875,2.15000009537,0,0,1,0,0,0,0,0
1595838629473073477,31837,1595838629467635578,,-0.00872664619237,0.0,0.1875,2.15833330154,0,0,1,0,0,0,0,0
1595838629480554993,31838,1595838629478261849,,-0.0069813169539,0.0,0.1875,2.16666674614,0,0,1,0,0,0,0,0
1595838629490332026,31839,1595838629487650228,,-0.0069813169539,0.0,0.1875,2.17499995232,0,0,1,0,0,0,0,0
1595838629501785137,31840,1595838629498445046,,-0.00523598771542,0.0,0.1875,2.18055558205,0,0,1,0,0,0,0,0
1595838629508817671,31841,1595838629508435599,,-0.00523598771542,0.0,0.1875,2.18888902664,0,0,1,0,0,0,0,0
1595838629519250537,31842,1595838629518208315,,-0.00349065847695,0.0,0.25,2.19444441795,0,0,1,0,0,0,0,0
1595838629528970581,31843,1595838629528364324,,-0.00349065847695,0.0,0.25,2.20277786255,0,0,1,0,0,0,0,0
1595838629540369941,31844,1595838629539638840,,-0.00174532923847,0.0,0.1875,2.20833349228,0,0,1,0,0,0,0,0
1595838629547946432,31845,1595838629547657789,,-0.00174532923847,0.0,0.1875,2.21666669846,0,0,1,0,0,0,0,0
1595838629558853991,31846,1595838629558306727,,-0.00174532923847,0.0,0.125,2.22222232819,0,0,1,0,0,0,0,0
1595838629570932944,31847,1595838629567817128,,-0.00174532923847,0.0,0.125,2.2277777195,0,0,1,0,0,0,0,0
1595838629578839580,31848,1595838629578290829,,-0.00174532923847,0.0,0.125,2.23333334923,0,0,1,0,0,0,0,0
1595838629598883678,31849,1595838629588405785,,-0.00174532923847,0.0,0.125,2.23888897896,0,0,1,0,0,0,0,0
1595838629608981651,31850,1595838629608038177,,-0.00174532923847,0.0,0.1875,2.24722218513,0,0,1,0,0,0,0,0
1595838629609351296,31851,1595838629608274071,,-0.00174532923847,0.0,0.1875,2.25555562973,0,0,1,0,0,0,0,0
1595838629632177772,31852,1595838629630429754,,-0.00174532923847,0.0,0.0625,2.26388883591,0,0,1,0,0,0,0,0
1595838629632289382,31853,1595838629630445949,,-0.00174532923847,0.0,0.0625,2.26944446564,0,0,1,0,0,0,0,0
1595838629639360062,31854,1595838629638570172,,-0.00174532923847,0.0,0.0,2.27500009537,0,0,1,0,0,0,0,0
1595838629651258127,31855,1595838629647667138,,-0.00174532923847,0.0,0.0,2.2805557251,0,0,1,0,0,0,0,0
1595838629661287690,31856,1595838629660799156,,-0.00174532923847,0.0,0.0625,2.28611111641,0,0,1,0,0,0,0,0
1595838629668506622,31857,1595838629667652556,,-0.00174532923847,0.0,0.0625,2.29166674614,0,0,1,0,0,0,0,0
1595838629678898063,31858,1595838629678271203,,-0.00174532923847,0.0,0.0625,2.29999995232,0,0,1,0,0,0,0,0
1595838629688493536,31859,1595838629687694327,,-0.00174532923847,0.0,0.0625,2.30833339691,0,0,1,0,0,0,0,0
1595838629699412155,31860,1595838629698282562,,-0.00174532923847,0.0,0.0,2.31388902664,0,0,1,0,0,0,0,0
1595838629707844350,31861,1595838629707664200,,-0.00174532923847,0.0,0.0,2.32222223282,0,0,1,0,0,0,0,0
1595838629718659267,31862,1595838629718258733,,-0.00174532923847,0.0,-0.0625,2.32777786255,0,0,1,0,0,0,0,0
1595838629729402474,31863,1595838629727853514,,-0.00174532923847,0.0,-0.0625,2.33333349228,0,0,1,0,0,0,0,0
1595838629740541849,31864,1595838629739210731,,-0.00174532923847,0.0,0.0625,2.33888888359,0,0,1,0,0,0,0,0
1595838629747978719,31865,1595838629747653202,,-0.00174532923847,0.0,0.0625,2.34722232819,0,0,1,0,0,0,0,0
1595838629759009406,31866,1595838629758685686,,-0.00174532923847,0.0,0.0625,2.3527777195,0,0,1,0,0,0,0,0
1595838629767973343,31867,1595838629767654393,,-0.00174532923847,0.0,0.0625,2.36111116409,0,0,1,0,0,0,0,0
1595838629778927163,31868,1595838629778232803,,-0.00174532923847,0.0,0.0,2.36666679382,0,0,1,0,0,0,0,0
1595838629796294781,31869,1595838629788268320,,-0.00174532923847,0.0,0.0,2.37222218513,0,0,1,0,0,0,0,0
1595838629800361148,31870,1595838629798238161,,-0.00174532923847,0.0,-0.0625,2.37777781487,0,0,1,0,0,0,0,0
1595838629812374033,31871,1595838629808154073,,-0.00174532923847,0.0,-0.0625,2.3833334446,0,0,1,0,0,0,0,0
1595838629818576292,31872,1595838629818215501,,-0.00174532923847,0.0,-0.125,2.38888883591,0,0,1,0,0,0,0,0
1595838629827979408,31873,1595838629827637268,,-0.00174532923847,0.0,-0.125,2.39444446564,0,0,1,0,0,0,0,0
1595838629838764526,31874,1595838629838241843,,-0.00174532923847,0.0,-0.125,2.40000009537,0,0,1,0,0,0,0,0
1595838629848930472,31875,1595838629847641794,,-0.00174532923847,0.0,-0.125,2.4055557251,0,0,1,0,0,0,0,0
1595838629859475536,31876,1595838629858226332,,-0.00174532923847,0.0,-0.1875,2.41111111641,0,0,1,0,0,0,0,0
1595838629867948935,31877,1595838629867677644,,-0.00174532923847,0.0,-0.1875,2.41666674614,0,0,1,0,0,0,0,0
1595838629879444928,31878,1595838629878258271,,-0.00349065847695,0.0,-0.25,2.42222237587,0,0,1,0,0,0,0,0
1595838629889695402,31879,1595838629887695671,,-0.00349065847695,0.0,-0.25,2.42777776718,0,0,1,0,0,0,0,0
1595838629898628478,31880,1595838629898261262,,-0.00349065847695,0.0,-0.1875,2.43333339691,0,0,1,0,0,0,0,0
1595838629911590323,31881,1595838629907702384,,-0.00349065847695,0.0,-0.1875,2.43611121178,0,0,1,0,0,0,0,0
1595838629918495270,31882,1595838629918230746,,-0.00349065847695,0.0,-0.1875,2.44166684151,0,0,1,0,0,0,0,0
1595838629927896210,31883,1595838629927656169,,-0.00349065847695,0.0,-0.1875,2.44722223282,0,0,1,0,0,0,0,0
1595838629939262598,31884,1595838629938256516,,-0.00349065847695,0.0,-0.1875,2.45277786255,0,0,1,0,0,0,0,0
1595838629947886070,31885,1595838629947652457,,-0.00349065847695,0.0,-0.1875,2.46111106873,0,0,1,0,0,0,0,0
1595838629958681349,31886,1595838629958284653,,-0.00349065847695,0.0,-0.25,2.46666669846,0,0,1,0,0,0,0,0
1595838629968386707,31887,1595838629967934540,,-0.00349065847695,0.0,-0.25,2.46944451332,0,0,1,0,0,0,0,0
1595838629979992020,31888,1595838629978267763,,-0.00523598771542,0.0,-0.25,2.47500014305,0,0,1,0,0,0,0,0
1595838629987985620,31889,1595838629987683040,,-0.00523598771542,0.0,-0.25,2.4777777195,0,0,1,0,0,0,0,0
1595838630000683995,31890,1595838629998266759,,-0.00523598771542,0.0,-0.3125,2.48333334923,0,0,1,0,0,0,0,0
1595838630007889765,31891,1595838630007648971,,-0.00523598771542,0.0,-0.3125,2.48888897896,0,0,1,0,0,0,0,0
1595838630018622943,31892,1595838630018293837,,-0.00523598771542,0.0,-0.3125,2.49444460869,0,0,1,0,0,0,0,0
1595838630027944859,31893,1595838630027648921,,-0.00523598771542,0.0,-0.3125,2.50277781487,0,0,1,0,0,0,0,0
1595838630039973629,31894,1595838630039249614,,-0.00523598771542,0.0,-0.375,2.5083334446,0,0,1,0,0,0,0,0
1595838630048542642,31895,1595838630047891533,,-0.00523598771542,0.0,-0.375,2.51388883591,0,0,1,0,0,0,0,0
1595838630066317986,31896,1595838630063890875,,-0.00523598771542,0.0,-0.4375,2.51944446564,0,0,1,0,0,0,0,0
1595838630073199768,31897,1595838630072633286,,-0.00523598771542,0.0,-0.4375,2.52500009537,0,0,1,0,0,0,0,0
1595838630078605131,31898,1595838630078268839,,-0.00523598771542,0.0,-0.4375,2.5305557251,0,0,1,0,0,0,0,0
1595838630092661397,31899,1595838630087650325,,-0.00523598771542,0.0,-0.4375,2.53333330154,0,0,1,0,0,0,0,0
1595838630099140675,31900,1595838630098764848,,-0.0069813169539,0.0,-0.4375,2.53888893127,0,0,1,0,0,0,0,0
1595838630107953813,31901,1595838630107734799,,-0.0069813169539,0.0,-0.4375,2.544444561,0,0,1,0,0,0,0,0
1595838630118617883,31902,1595838630118247850,,-0.0069813169539,0.0,-0.4375,2.54722237587,0,0,1,0,0,0,0,0
1595838630129079658,31903,1595838630127648230,,-0.00872664619237,0.0,-0.4375,2.55277776718,0,0,1,0,0,0,0,0
1595838630140101878,31904,1595838630139279638,,-0.00872664619237,0.0,-0.4375,2.55833339691,0,0,1,0,0,0,0,0
1595838630154928883,31905,1595838630154376499,,-0.0104719754308,0.0,-0.4375,2.56388902664,0,0,1,0,0,0,0,0
1595838630168816571,31906,1595838630167934550,,-0.0104719754308,0.0,-0.375,2.56944441795,0,0,1,0,0,0,0,0
1595838630168829644,31907,1595838630167951980,,-0.0122173046693,0.0,-0.375,2.57500004768,0,0,1,0,0,0,0,0
1595838630178642900,31908,1595838630178292199,,-0.0122173046693,0.0,-0.5,2.57777786255,0,0,1,0,0,0,0,0
1595838630188409639,31909,1595838630187631578,,-0.0122173046693,0.0,-0.5,2.58333349228,0,0,1,0,0,0,0,0
1595838630199616098,31910,1595838630199285821,,-0.0122173046693,0.0,-0.5,2.58611106873,0,0,1,0,0,0,0,0
1595838630208403574,31911,1595838630208059471,,-0.0139626339078,0.0,-0.5,2.59166669846,0,0,1,0,0,0,0,0
1595838630220935867,31912,1595838630220050523,,-0.0139626339078,0.0,-0.5,2.59722232819,0,0,1,0,0,0,0,0
1595838630228181496,31913,1595838630227670534,,-0.0139626339078,0.0,-0.5,2.60277795792,0,0,1,0,0,0,0,0
1595838630241609716,31914,1595838630239397277,,-0.0139626339078,0.0,-0.5,2.60555553436,0,0,1,0,0,0,0,0
1595838630247963017,31915,1595838630247611601,,-0.0139626339078,0.0,-0.5,2.61111116409,0,0,1,0,0,0,0,0
1595838630259300213,31916,1595838630258373551,,-0.0139626339078,0.0,-0.5,2.61388897896,0,0,1,0,0,0,0,0
1595838630269994646,31917,1595838630267701847,,-0.0139626339078,0.0,-0.5,2.61944460869,0,0,1,0,0,0,0,0
1595838630279058367,31918,1595838630278364065,,-0.0139626339078,0.0,-0.4375,2.625,0,0,1,0,0,0,0,0
1595838630293134642,31919,1595838630287656635,,-0.0139626339078,0.0,-0.4375,2.62777781487,0,0,1,0,0,0,0,0
1595838630298716288,31920,1595838630298435231,,-0.0139626339078,0.0,-0.4375,2.6333334446,0,0,1,0,0,0,0,0
1595838630307862671,31921,1595838630307643471,,-0.0139626339078,0.0,-0.4375,2.64166665077,0,0,1,0,0,0,0,0
1595838630318780070,31922,1595838630318504501,,-0.0139626339078,0.0,-0.375,2.6472222805,0,0,1,0,0,0,0,0
1595838630329833573,31923,1595838630327683307,,-0.0139626339078,0.0,-0.375,2.65277791023,0,0,1,0,0,0,0,0
1595838630338508537,31924,1595838630338287835,,-0.0139626339078,0.0,-0.375,2.6555557251,0,0,1,0,0,0,0,0
1595838630348065946,31925,1595838630347671112,,-0.0139626339078,0.0,-0.375,2.66111111641,0,0,1,0,0,0,0,0
1595838630358489907,31926,1595838630358292251,,-0.0139626339078,0.0,-0.375,2.66666674614,0,0,1,0,0,0,0,0
1595838630367898111,31927,1595838630367749210,,-0.0139626339078,0.0,-0.375,2.669444561,0,0,1,0,0,0,0,0
1595838630379207754,31928,1595838630378301335,,-0.0139626339078,0.0,-0.375,2.67222237587,0,0,1,0,0,0,0,0
1595838630387962632,31929,1595838630387682728,,-0.0139626339078,0.0,-0.375,2.67499995232,0,0,1,0,0,0,0,0
1595838630399087194,31930,1595838630398667058,,-0.0139626339078,0.0,-0.375,2.67777776718,0,0,1,0,0,0,0,0
1595838630407861273,31931,1595838630407712061,,-0.0139626339078,0.0,-0.375,2.68333339691,0,0,1,0,0,0,0,0
1595838630418521363,31932,1595838630418281170,,-0.0139626339078,0.0,-0.4375,2.68611121178,0,0,1,0,0,0,0,0
1595838630429402852,31933,1595838630428374500,,-0.0139626339078,0.0,-0.4375,2.69166684151,0,0,1,0,0,0,0,0
1595838630438604411,31934,1595838630438310232,,-0.0139626339078,0.0,-0.375,2.69444441795,0,0,1,0,0,0,0,0
1595838630447894922,31935,1595838630447653062,,-0.0139626339078,0.0,-0.375,2.70000004768,0,0,1,0,0,0,0,0
1595838630458842230,31936,1595838630458290008,,-0.0139626339078,0.0,-0.3125,2.70277786255,0,0,1,0,0,0,0,0
1595838630468247050,31937,1595838630467936097,,-0.0139626339078,0.0,-0.3125,2.70555567741,0,0,1,0,0,0,0,0
1595838630480805272,31938,1595838630480133609,,-0.0139626339078,0.0,-0.375,2.70833349228,0,0,1,0,0,0,0,0
1595838630488432040,31939,1595838630487838292,,-0.0139626339078,0.0,-0.375,2.71388888359,0,0,1,0,0,0,0,0
1595838630498628215,31940,1595838630498333395,,-0.0139626339078,0.0,-0.375,2.71666669846,0,0,1,0,0,0,0,0
1595838630508161555,31941,1595838630507759724,,-0.0139626339078,0.0,-0.375,2.71944451332,0,0,1,0,0,0,0,0
1595838630520422599,31942,1595838630518296535,,-0.0139626339078,0.0,-0.375,2.72500014305,0,0,1,0,0,0,0,0
1595838630527974734,31943,1595838630527664777,,-0.0139626339078,0.0,-0.375,2.73055553436,0,0,1,0,0,0,0,0
1595838630538680426,31944,1595838630538285450,,-0.0139626339078,0.0,-0.3125,2.73333334923,0,0,1,0,0,0,0,0
1595838630547898429,31945,1595838630547642918,,-0.0139626339078,0.0,-0.3125,2.73888897896,0,0,1,0,0,0,0,0
1595838630558593377,31946,1595838630558327472,,-0.0139626339078,0.0,-0.3125,2.74166679382,0,0,1,0,0,0,0,0
1595838630567986611,31947,1595838630567632779,,-0.0139626339078,0.0,-0.3125,2.74722218513,0,0,1,0,0,0,0,0
1595838630578763791,31948,1595838630578329862,,-0.0139626339078,0.0,-0.25,2.75,0,0,1,0,0,0,0,0
1595838630588211589,31949,1595838630587638762,,-0.0139626339078,0.0,-0.25,2.75277781487,0,0,1,0,0,0,0,0
1595838630598754589,31950,1595838630598351796,,-0.0139626339078,0.0,-0.1875,2.7583334446,0,0,1,0,0,0,0,0
1595838630610772196,31951,1595838630607630076,,-0.0139626339078,0.0,-0.1875,2.76111125946,0,0,1,0,0,0,0,0
1595838630618801017,31952,1595838630618284728,,-0.0139626339078,0.0,-0.25,2.76388907433,0,0,1,0,0,0,0,0
1595838630627906824,31953,1595838630627664851,,-0.0139626339078,0.0,-0.25,2.76944446564,0,0,1,0,0,0,0,0
1595838630639206351,31954,1595838630638297559,,-0.0139626339078,0.0,-0.3125,2.7722222805,0,0,1,0,0,0,0,0
1595838630648051442,31955,1595838630647667536,,-0.0139626339078,0.0,-0.3125,2.77777791023,0,0,1,0,0,0,0,0
1595838630658946722,31956,1595838630658318893,,-0.0139626339078,0.0,-0.25,2.7805557251,0,0,1,0,0,0,0,0
1595838630667928966,31957,1595838630667644038,,-0.0139626339078,0.0,-0.25,2.78611111641,0,0,1,0,0,0,0,0
1595838630678697435,31958,1595838630678309554,,-0.0139626339078,0.0,-0.1875,2.78888893127,0,0,1,0,0,0,0,0
1595838630687967698,31959,1595838630687687118,,-0.0139626339078,0.0,-0.1875,2.794444561,0,0,1,0,0,0,0,0
1595838630698999114,31960,1595838630698492441,,-0.0139626339078,0.0,-0.3125,2.79722237587,0,0,1,0,0,0,0,0
1595838630710824559,31961,1595838630707660177,,-0.0139626339078,0.0,-0.3125,2.79999995232,0,0,1,0,0,0,0,0
1595838630718910292,31962,1595838630718557565,,-0.0139626339078,0.0,-0.25,2.80277776718,0,0,1,0,0,0,0,0
1595838630728247466,31963,1595838630727679754,,-0.0139626339078,0.0,-0.25,2.80555558205,0,0,1,0,0,0,0,0
1595838630738767415,31964,1595838630738302347,,-0.0139626339078,0.0,-0.125,2.80833339691,0,0,1,0,0,0,0,0
1595838630747910659,31965,1595838630747672285,,-0.0139626339078,0.0,-0.125,2.81388902664,0,0,1,0,0,0,0,0
1595838630758631822,31966,1595838630758356065,,-0.0139626339078,0.0,-0.125,2.81944441795,0,0,1,0,0,0,0,0
1595838630767953906,31967,1595838630767666514,,-0.0139626339078,0.0,-0.125,2.82222223282,0,0,1,0,0,0,0,0
1595838630778682634,31968,1595838630778316062,,-0.0139626339078,0.0,-0.125,2.82777786255,0,0,1,0,0,0,0,0
1595838630790583190,31969,1595838630788721819,,-0.0139626339078,0.0,-0.125,2.83055567741,0,0,1,0,0,0,0,0
1595838630799551335,31970,1595838630798389430,,-0.0139626339078,0.0,-0.0625,2.83611106873,0,0,1,0,0,0,0,0
1595838630808113656,31971,1595838630807684140,,-0.0139626339078,0.0,-0.0625,2.83888888359,0,0,1,0,0,0,0,0
1595838630818879334,31972,1595838630818545607,,-0.0122173046693,0.0,-0.0625,2.84166669846,0,0,1,0,0,0,0,0
1595838630827952135,31973,1595838630827689043,,-0.0122173046693,0.0,-0.0625,2.84722232819,0,0,1,0,0,0,0,0
1595838630838676100,31974,1595838630838351397,,-0.0122173046693,0.0,-0.125,2.85000014305,0,0,1,0,0,0,0,0
1595838630848432252,31975,1595838630847669744,,-0.0122173046693,0.0,-0.125,2.85277795792,0,0,1,0,0,0,0,0
1595838630858709053,31976,1595838630858487694,,-0.0122173046693,0.0,-0.125,2.85555553436,0,0,1,0,0,0,0,0
1595838630867991597,31977,1595838630867697464,,-0.0122173046693,0.0,-0.125,2.86111116409,0,0,1,0,0,0,0,0
1595838630879019950,31978,1595838630878507058,,-0.0122173046693,0.0,-0.0625,2.86388897896,0,0,1,0,0,0,0,0
1595838630888141243,31979,1595838630887646160,,-0.0104719754308,0.0,-0.0625,2.86944460869,0,0,1,0,0,0,0,0
1595838630898657680,31980,1595838630898316693,,-0.0104719754308,0.0,-0.0625,2.87222218513,0,0,1,0,0,0,0,0
1595838630907925707,31981,1595838630907639942,,-0.0104719754308,0.0,-0.0625,2.87777781487,0,0,1,0,0,0,0,0
1595838630922045343,31982,1595838630921710720,,-0.0104719754308,0.0,-0.0625,2.88055562973,0,0,1,0,0,0,0,0
1595838630929866010,31983,1595838630927943286,,-0.00872664619237,0.0,-0.0625,2.8833334446,0,0,1,0,0,0,0,0
1595838630939057490,31984,1595838630938353935,,-0.00872664619237,0.0,-0.0625,2.88611125946,0,0,1,0,0,0,0,0
1595838630948024816,31985,1595838630947699343,,-0.00872664619237,0.0,-0.0625,2.88888907433,0,0,1,0,0,0,0,0
1595838630959025862,31986,1595838630958347917,,-0.00872664619237,0.0,-0.0625,2.89166665077,0,0,1,0,0,0,0,0
1595838630969230522,31987,1595838630967940095,,-0.00872664619237,0.0,-0.0625,2.8972222805,0,0,1,0,0,0,0,0
1595838630978565934,31988,1595838630978324838,,-0.00872664619237,0.0,0.0,2.90000009537,0,0,1,0,0,0,0,0
1595838630989768512,31989,1595838630987696560,,-0.0069813169539,0.0,0.0,2.90277791023,0,0,1,0,0,0,0,0
1595838631001254957,31990,1595838630998370964,,-0.0069813169539,0.0,0.0,2.9055557251,0,0,1,0,0,0,0,0
1595838631007933995,31991,1595838631007696382,,-0.0069813169539,0.0,0.0,2.90833330154,0,0,1,0,0,0,0,0
1595838631018668876,31992,1595838631018323249,,-0.0069813169539,0.0,-0.0625,2.91388893127,0,0,1,0,0,0,0,0
1595838631027876436,31993,1595838631027644687,,-0.0069813169539,0.0,-0.0625,2.91666674614,0,0,1,0,0,0,0,0
1595838631042561562,31994,1595838631038398181,,-0.0069813169539,0.0,0.0625,2.91666674614,0,0,1,0,0,0,0,0
1595838631047940579,31995,1595838631047675464,,-0.0069813169539,0.0,0.0625,2.919444561,0,0,1,0,0,0,0,0
1595838631058647570,31996,1595838631058356762,,-0.0069813169539,0.0,0.0625,2.92222237587,0,0,1,0,0,0,0,0
1595838631068258940,31997,1595838631067675181,,-0.0069813169539,0.0,0.0625,2.92499995232,0,0,1,0,0,0,0,0
1595838631078737669,31998,1595838631078334377,,-0.0069813169539,0.0,0.0,2.92777776718,0,0,1,0,0,0,0,0
1595838631087968334,31999,1595838631087713306,,-0.0069813169539,0.0,0.0,2.93055558205,0,0,1,0,0,0,0,0
1595838631098952541,32000,1595838631098374689,,-0.0069813169539,0.0,0.0,2.93333339691,0,0,1,0,0,0,0,0
1595838631107915764,32001,1595838631107693901,,-0.0069813169539,0.0,0.0,2.93611121178,0,0,1,0,0,0,0,0
1595838631118849385,32002,1595838631118343073,,-0.0069813169539,0.0,0.1875,2.93888902664,0,0,1,0,0,0,0,0
1595838631127898045,32003,1595838631127682478,,-0.0069813169539,0.0,0.1875,2.94166684151,0,0,1,0,0,0,0,0
1595838631139744670,32004,1595838631138350764,,-0.00523598771542,0.0,0.375,2.94166684151,0,0,1,0,0,0,0,0
1595838631148618629,32005,1595838631147692463,,-0.00523598771542,0.0,0.375,2.94722223282,0,0,1,0,0,0,0,0
1595838631160468624,32006,1595838631158426475,,-0.00174532923847,0.0,0.375,2.95000004768,0,0,1,0,0,0,0,0
1595838631169579654,32007,1595838631167726876,,0.0,0.0,0.375,2.95000004768,0,0,1,0,0,0,0,0
1595838631178637593,32008,1595838631178362838,,0.0,0.0,0.375,2.95277786255,0,0,1,0,0,0,0,0
1595838631188134608,32009,1595838631187711935,,0.0,0.0,0.375,2.95833349228,0,0,1,0,0,0,0,0
1595838631200894899,32010,1595838631198344922,,0.0,0.0,0.4375,2.96111106873,0,0,1,0,0,0,0,0
1595838631208029956,32011,1595838631207699666,,0.0,0.0,0.4375,2.96388888359,0,0,1,0,0,0,0,0
1595838631218558275,32012,1595838631218321902,,0.00174532923847,0.0,0.375,2.96666669846,0,0,1,0,0,0,0,0
1595838631231170072,32013,1595838631227689736,,0.00174532923847,0.0,0.375,2.96944451332,0,0,1,0,0,0,0,0
1595838631238616187,32014,1595838631238345175,,0.00174532923847,0.0,0.375,2.97222232819,0,0,1,0,0,0,0,0
1595838631248187658,32015,1595838631247749221,,0.00349065847695,0.0,0.375,2.97222232819,0,0,1,0,0,0,0,0
1595838631259197421,32016,1595838631258357315,,0.00349065847695,0.0,0.375,2.97500014305,0,0,1,0,0,0,0,0
1595838631268239501,32017,1595838631267704447,,0.00349065847695,0.0,0.375,2.97500014305,0,0,1,0,0,0,0,0
1595838631280387892,32018,1595838631278443617,,0.00349065847695,0.0,0.3125,2.97777795792,0,0,1,0,0,0,0,0
1595838631288868000,32019,1595838631287702016,,0.00349065847695,0.0,0.3125,2.98055553436,0,0,1,0,0,0,0,0
1595838631298641254,32020,1595838631298351141,,0.00349065847695,0.0,0.375,2.98055553436,0,0,1,0,0,0,0,0
1595838631308054129,32021,1595838631307700214,,0.00349065847695,0.0,0.375,2.98333334923,0,0,1,0,0,0,0,0
1595838631318705090,32022,1595838631318368223,,0.00523598771542,0.0,0.3125,2.98611116409,0,0,1,0,0,0,0,0
1595838631328744319,32023,1595838631327698164,,0.00523598771542,0.0,0.3125,2.98888897896,0,0,1,0,0,0,0,0
1595838631338704797,32024,1595838631338358737,,0.00523598771542,0.0,0.3125,2.99166679382,0,0,1,0,0,0,0,0
1595838631347974906,32025,1595838631347678418,,0.00523598771542,0.0,0.3125,2.99444460869,0,0,1,0,0,0,0,0
1595838631358924286,32026,1595838631358340916,,0.00523598771542,0.0,0.4375,2.99722218513,0,0,1,0,0,0,0,0
1595838631368319064,32027,1595838631367732691,,0.0069813169539,0.0,0.4375,3.0,0,0,1,0,0,0,0,0
1595838631380820334,32028,1595838631378353376,,0.00872664619237,0.0,0.375,3.00277781487,0,0,1,0,0,0,0,0
1595838631388388181,32029,1595838631387879372,,0.0104719754308,0.0,0.375,3.00555562973,0,0,1,0,0,0,0,0
1595838631398697115,32030,1595838631398381373,,0.0122173046693,0.0,0.3125,3.00555562973,0,0,1,0,0,0,0,0
1595838631412928645,32031,1595838631407952204,,0.0139626339078,0.0,0.3125,3.0083334446,0,0,1,0,0,0,0,0
